[
  {
    "Address": "1205 N. Memorial Parkway",
    "City": "Huntsville",
    "State": "Alabama",
    "Zip Code": "35801-5930",
    "Latitude": 34.7430949,
    "Longitude": -86.6009553
  },
  {
    "Address": "3650 Galleria Circle",
    "City": "Hoover",
    "State": "Alabama",
    "Zip Code": "35244-2346",
    "Latitude": 33.377649,
    "Longitude": -86.81242
  },
  {
    "Address": "8251 Eastchase Parkway",
    "City": "Montgomery",
    "State": "Alabama",
    "Zip Code": "36117",
    "Latitude": 32.363889,
    "Longitude": -86.150884
  },
  {
    "Address": "5225 Commercial Boulevard",
    "City": "Juneau",
    "State": "Alaska",
    "Zip Code": "99801-7210",
    "Latitude": 58.3592,
    "Longitude": -134.483
  },
  {
    "Address": "330 West Dimond Blvd",
    "City": "Anchorage",
    "State": "Alaska",
    "Zip Code": "99515-1950",
    "Latitude": 61.143266,
    "Longitude": -149.884217
  },
  {
    "Address": "4125 DeBarr Road",
    "City": "Anchorage",
    "State": "Alaska",
    "Zip Code": "99508-3115",
    "Latitude": 61.210815,
    "Longitude": -149.804337
  },
  {
    "Address": "3911 Highway 69",
    "City": "Prescott",
    "State": "Arizona",
    "Zip Code": "86301-6717",
    "Latitude": 34.548993,
    "Longitude": -112.3954274
  },
  {
    "Address": "3901 West Costco Drive",
    "City": "Tucson",
    "State": "Arizona",
    "Zip Code": "85741-2864",
    "Latitude": 32.3262177,
    "Longitude": -111.0491606
  },
  {
    "Address": "6255 East Grant Road",
    "City": "Tucson",
    "State": "Arizona",
    "Zip Code": "85712-5834",
    "Latitude": 32.2522189,
    "Longitude": -110.859554
  },
  {
    "Address": "17550 N. 79th Ave.",
    "City": "Glendale",
    "State": "Arizona",
    "Zip Code": "85308-8711",
    "Latitude": 33.643277,
    "Longitude": -112.233474
  },
  {
    "Address": "2887 S Market St",
    "City": "Gilbert",
    "State": "Arizona",
    "Zip Code": "85296-6303",
    "Latitude": 33.296095,
    "Longitude": -111.745647
  },
  {
    "Address": "1445 West Elliot Road",
    "City": "Tempe",
    "State": "Arizona",
    "Zip Code": "85284-1103",
    "Latitude": 33.347289,
    "Longitude": -111.961862
  },
  {
    "Address": "15255 North Hayden Road",
    "City": "Scottsdale",
    "State": "Arizona",
    "Zip Code": "85260-2507",
    "Latitude": 33.6241344,
    "Longitude": -111.9019118
  },
  {
    "Address": "1415 North Arizona Avenue",
    "City": "Gilbert",
    "State": "Arizona",
    "Zip Code": "85233-1616",
    "Latitude": 33.376244,
    "Longitude": -111.840765
  },
  {
    "Address": "595 S Galleria Way",
    "City": "Chandler",
    "State": "Arizona",
    "Zip Code": "85226-4932",
    "Latitude": 33.293696,
    "Longitude": -111.899509
  },
  {
    "Address": "1444 S Sossaman Rd",
    "City": "Mesa",
    "State": "Arizona",
    "Zip Code": "85209-3400",
    "Latitude": 33.3886808,
    "Longitude": -111.6675437
  },
  {
    "Address": "2450 E Beardsley Rd",
    "City": "Phoenix",
    "State": "Arizona",
    "Zip Code": "85050-1300",
    "Latitude": 33.670943,
    "Longitude": -112.028124
  },
  {
    "Address": "19001 N. 27th Ave",
    "City": "Phoenix",
    "State": "Arizona",
    "Zip Code": "85027-5036",
    "Latitude": 33.659688,
    "Longitude": -112.115841
  },
  {
    "Address": "3801 N. 33rd Avenue",
    "City": "Phoenix",
    "State": "Arizona",
    "Zip Code": "85017-4508",
    "Latitude": 33.49179,
    "Longitude": -112.128379
  },
  {
    "Address": "1646 W. Montebello",
    "City": "Phoenix",
    "State": "Arizona",
    "Zip Code": "85015-2557",
    "Latitude": 33.5206919,
    "Longitude": -112.095189
  },
  {
    "Address": "4502 East Oak Street",
    "City": "Phoenix",
    "State": "Arizona",
    "Zip Code": "85008-2411",
    "Latitude": 33.473335,
    "Longitude": -111.985531
  },
  {
    "Address": "10000 W. McDowell Road",
    "City": "Avondale",
    "State": "Arizona",
    "Zip Code": "85323",
    "Latitude": 33.467156,
    "Longitude": -112.274404
  },
  {
    "Address": "4570 E Cactus Rd",
    "City": "Phoenix",
    "State": "Arizona",
    "Zip Code": "85032",
    "Latitude": 33.600961,
    "Longitude": -111.983793
  },
  {
    "Address": "2345 Fenton Pkwy",
    "City": "San Diego",
    "State": "California",
    "Zip Code": "92108-4743",
    "Latitude": 32.7789832,
    "Longitude": -117.1269067
  },
  {
    "Address": "1300 Dana Drive",
    "City": "Redding",
    "State": "California",
    "Zip Code": "96003-4071",
    "Latitude": 40.586449,
    "Longitude": -122.345675
  },
  {
    "Address": "2100 Dr Martin Luther King Jr Way",
    "City": "Chico",
    "State": "California",
    "Zip Code": "95928-4422",
    "Latitude": 39.7214025,
    "Longitude": -121.8096578
  },
  {
    "Address": "7981 East Stockton Boulevard",
    "City": "Sacramento",
    "State": "California",
    "Zip Code": "95823-9606",
    "Latitude": 38.4677597,
    "Longitude": -121.4154069
  },
  {
    "Address": "1600 Expo Parkway",
    "City": "Sacramento",
    "State": "California",
    "Zip Code": "95815-4228",
    "Latitude": 38.597139,
    "Longitude": -121.452409
  },
  {
    "Address": "2299 Bronze Star Drive",
    "City": "Woodland",
    "State": "California",
    "Zip Code": "95776-5409",
    "Latitude": 38.6699409,
    "Longitude": -121.7259571
  },
  {
    "Address": "11260 White Rock Road",
    "City": "Rancho Cordova",
    "State": "California",
    "Zip Code": "95742-6571",
    "Latitude": 38.588195,
    "Longitude": -121.263769
  },
  {
    "Address": "6750 Stanford Ranch Road",
    "City": "Roseville",
    "State": "California",
    "Zip Code": "95678-1907",
    "Latitude": 38.78061,
    "Longitude": -121.267423
  },
  {
    "Address": "1800 Cavitt Court",
    "City": "Folsom",
    "State": "California",
    "Zip Code": "95630-6235",
    "Latitude": 38.645206,
    "Longitude": -121.109598
  },
  {
    "Address": "7000 Auburn Blvd",
    "City": "Citrus Heights",
    "State": "California",
    "Zip Code": "95621-4342",
    "Latitude": 38.6903,
    "Longitude": -121.29859
  },
  {
    "Address": "1006 West Wabash Avenue",
    "City": "Eureka",
    "State": "California",
    "Zip Code": "95501-2121",
    "Latitude": 40.7919385,
    "Longitude": -124.1825438
  },
  {
    "Address": "1900 Santa Rosa Avenue",
    "City": "Santa Rosa",
    "State": "California",
    "Zip Code": "95407-7636",
    "Latitude": 38.4204562,
    "Longitude": -122.7134804
  },
  {
    "Address": "3801 Pelandale Ave.",
    "City": "Modesto",
    "State": "California",
    "Zip Code": "95356-8300",
    "Latitude": 37.7003612,
    "Longitude": -121.0671386
  },
  {
    "Address": "1445 R Street",
    "City": "Merced",
    "State": "California",
    "Zip Code": "95340-5850",
    "Latitude": 37.3019943,
    "Longitude": -120.4940012
  },
  {
    "Address": "2440 Daniels St",
    "City": "Manteca",
    "State": "California",
    "Zip Code": "95336-6745",
    "Latitude": 37.784874,
    "Longitude": -121.260014
  },
  {
    "Address": "1616 East Hammer Lane",
    "City": "Stockton",
    "State": "California",
    "Zip Code": "95210-4119",
    "Latitude": 38.018791,
    "Longitude": -121.292757
  },
  {
    "Address": "1709 Automation Parkway",
    "City": "San Jose",
    "State": "California",
    "Zip Code": "95131-1866",
    "Latitude": 37.3886293,
    "Longitude": -121.8829132
  },
  {
    "Address": "5301 Almaden Expressway",
    "City": "San Jose",
    "State": "California",
    "Zip Code": "95118-3603",
    "Latitude": 37.253214,
    "Longitude": -121.879999
  },
  {
    "Address": "2201 Senter Road",
    "City": "San Jose",
    "State": "California",
    "Zip Code": "95112-2627",
    "Latitude": 37.309657,
    "Longitude": -121.851571
  },
  {
    "Address": "220 Sylvania Avenue",
    "City": "Santa Cruz",
    "State": "California",
    "Zip Code": "95060-2161",
    "Latitude": 36.985104,
    "Longitude": -122.033615
  },
  {
    "Address": "1601 Coleman Avenue",
    "City": "Santa Clara",
    "State": "California",
    "Zip Code": "95050-3100",
    "Latitude": 37.357021,
    "Longitude": -121.938843
  },
  {
    "Address": "300 Vintage Way",
    "City": "Novato",
    "State": "California",
    "Zip Code": "94945-5007",
    "Latitude": 38.087238,
    "Longitude": -122.551076
  },
  {
    "Address": "4801 Central Avenue",
    "City": "Richmond",
    "State": "California",
    "Zip Code": "94804-5878",
    "Latitude": 37.898774,
    "Longitude": -122.320125
  },
  {
    "Address": "198 Plaza Drive",
    "City": "Vallejo",
    "State": "California",
    "Zip Code": "94591-3702",
    "Latitude": 38.133192,
    "Longitude": -122.213745
  },
  {
    "Address": "5101 Business Center Drive",
    "City": "Fairfield",
    "State": "California",
    "Zip Code": "94585-1624",
    "Latitude": 38.215406,
    "Longitude": -122.144911
  },
  {
    "Address": "1900 Davis Street",
    "City": "San Leandro",
    "State": "California",
    "Zip Code": "94577-1209",
    "Latitude": 37.7181741,
    "Longitude": -122.1809332
  },
  {
    "Address": "2800 Independence Drive",
    "City": "Livermore",
    "State": "California",
    "Zip Code": "94550-7628",
    "Latitude": 37.702588,
    "Longitude": -121.812265
  },
  {
    "Address": "22330 Hathaway Avenue",
    "City": "Hayward",
    "State": "California",
    "Zip Code": "94541-4861",
    "Latitude": 37.667516,
    "Longitude": -122.10278
  },
  {
    "Address": "43621 Pacific Commons Blvd",
    "City": "Fremont",
    "State": "California",
    "Zip Code": "94538-3809",
    "Latitude": 37.5031232,
    "Longitude": -121.9748814
  },
  {
    "Address": "3150 Fostoria Way",
    "City": "Danville",
    "State": "California",
    "Zip Code": "94526-5553",
    "Latitude": 37.78259,
    "Longitude": -121.972853
  },
  {
    "Address": "2201 Verne Roberts Circle",
    "City": "Antioch",
    "State": "California",
    "Zip Code": "94509-7911",
    "Latitude": 38.009119,
    "Longitude": -121.837904
  },
  {
    "Address": "1001 Metro Center Boulevard",
    "City": "Foster City",
    "State": "California",
    "Zip Code": "94404-2177",
    "Latitude": 37.561366,
    "Longitude": -122.275144
  },
  {
    "Address": "450 10th Street",
    "City": "San Francisco",
    "State": "California",
    "Zip Code": "94103-4304",
    "Latitude": 37.770488,
    "Longitude": -122.411106
  },
  {
    "Address": "150 Lawrence Station Road",
    "City": "Sunnyvale",
    "State": "California",
    "Zip Code": "94086-5328",
    "Latitude": 37.372027,
    "Longitude": -121.994779
  },
  {
    "Address": "451 South Airport Boulevard",
    "City": "South San Francisco",
    "State": "California",
    "Zip Code": "94080-6909",
    "Latitude": 37.6422308,
    "Longitude": -122.4010744
  },
  {
    "Address": "1600 El Camino Real",
    "City": "South San Francisco",
    "State": "California",
    "Zip Code": "94080-1206",
    "Latitude": 37.6654356,
    "Longitude": -122.4490857
  },
  {
    "Address": "1000 North Rengstorff Avenue",
    "City": "Mountain View",
    "State": "California",
    "Zip Code": "94043-1716",
    "Latitude": 37.420676,
    "Longitude": -122.095061
  },
  {
    "Address": "801 Tioga Avenue",
    "City": "Sand City",
    "State": "California",
    "Zip Code": "93955-3051",
    "Latitude": 36.6170705,
    "Longitude": -121.8474767
  },
  {
    "Address": "1339 North Davis Road",
    "City": "Salinas",
    "State": "California",
    "Zip Code": "93907-1988",
    "Latitude": 36.703939,
    "Longitude": -121.668608
  },
  {
    "Address": "4500 W Shaw",
    "City": "Fresno",
    "State": "California",
    "Zip Code": "93722-6200",
    "Latitude": 36.80989,
    "Longitude": -119.874081
  },
  {
    "Address": "380 West Ashlan Avenue",
    "City": "Clovis",
    "State": "California",
    "Zip Code": "93612-5611",
    "Latitude": 36.792187,
    "Longitude": -119.714342
  },
  {
    "Address": "1141 West Avenue L",
    "City": "Lancaster",
    "State": "California",
    "Zip Code": "93534-7077",
    "Latitude": 34.66129,
    "Longitude": -118.151429
  },
  {
    "Address": "1335 South Bradley",
    "City": "Santa Maria",
    "State": "California",
    "Zip Code": "93454-8006",
    "Latitude": 34.936541,
    "Longitude": -120.42084
  },
  {
    "Address": "1540 Froom Ranch Way",
    "City": "San Luis Obispo",
    "State": "California",
    "Zip Code": "93405-7211",
    "Latitude": 35.251917,
    "Longitude": -120.691013
  },
  {
    "Address": "1405 W Cameron Ave",
    "City": "Visalia",
    "State": "California",
    "Zip Code": "93277-9527",
    "Latitude": 36.292806,
    "Longitude": -119.306638
  },
  {
    "Address": "7095 Market Place Drive",
    "City": "Goleta",
    "State": "California",
    "Zip Code": "93117-5905",
    "Latitude": 34.42789,
    "Longitude": -119.874572
  },
  {
    "Address": "2001 East Ventura Boulevard",
    "City": "Oxnard",
    "State": "California",
    "Zip Code": "93030-1813",
    "Latitude": 34.2251071,
    "Longitude": -119.148567
  },
  {
    "Address": "22633 Savi Ranch Parkway",
    "City": "Yorba Linda",
    "State": "California",
    "Zip Code": "92887-4664",
    "Latitude": 33.87567,
    "Longitude": -117.74385
  },
  {
    "Address": "480 McKinley Street",
    "City": "Corona",
    "State": "California",
    "Zip Code": "92879-1291",
    "Latitude": 33.8899732,
    "Longitude": -117.5208947
  },
  {
    "Address": "11000 Garden Grove Boulevard",
    "City": "Garden Grove",
    "State": "California",
    "Zip Code": "92843-1206",
    "Latitude": 33.773511,
    "Longitude": -117.940271
  },
  {
    "Address": "900 South Harbor Boulevard",
    "City": "Fullerton",
    "State": "California",
    "Zip Code": "92832-3098",
    "Latitude": 33.862449,
    "Longitude": -117.92211
  },
  {
    "Address": "2655 El Camino Real",
    "City": "Tustin",
    "State": "California",
    "Zip Code": "92782-8918",
    "Latitude": 33.7282,
    "Longitude": -117.796294
  },
  {
    "Address": "2700 Park Ave",
    "City": "Tustin",
    "State": "California",
    "Zip Code": "92782-2708",
    "Latitude": 33.699689,
    "Longitude": -117.822618
  },
  {
    "Address": "17900 Newhope Street",
    "City": "Fountain Valley",
    "State": "California",
    "Zip Code": "92708-5404",
    "Latitude": 33.703448,
    "Longitude": -117.931978
  },
  {
    "Address": "27972 Cabot Road",
    "City": "Laguna Niguel",
    "State": "California",
    "Zip Code": "92677-1211",
    "Latitude": 33.5569565,
    "Longitude": -117.6788758
  },
  {
    "Address": "33961 Doheny Park Road",
    "City": "San Juan Capistrano",
    "State": "California",
    "Zip Code": "92675-4836",
    "Latitude": 33.469498,
    "Longitude": -117.677697
  },
  {
    "Address": "115 Technology West Drive",
    "City": "Irvine",
    "State": "California",
    "Zip Code": "92618-2408",
    "Latitude": 33.6570006,
    "Longitude": -117.7397337
  },
  {
    "Address": "12700 Day Street",
    "City": "Moreno Valley",
    "State": "California",
    "Zip Code": "92553-7531",
    "Latitude": 33.935555,
    "Longitude": -117.276579
  },
  {
    "Address": "29315 Central Ave",
    "City": "Lake Elsinore",
    "State": "California",
    "Zip Code": "92532-2212",
    "Latitude": 33.696337,
    "Longitude": -117.339182
  },
  {
    "Address": "1099 East Hospitality Lane",
    "City": "San Bernardino",
    "State": "California",
    "Zip Code": "92408-2836",
    "Latitude": 34.068044,
    "Longitude": -117.263077
  },
  {
    "Address": "14555 Valley Center Drive",
    "City": "Victorville",
    "State": "California",
    "Zip Code": "92392-4216",
    "Latitude": 34.5155574,
    "Longitude": -117.3196428
  },
  {
    "Address": "2030 North Imperial Avenue",
    "City": "El Centro",
    "State": "California",
    "Zip Code": "92243-1323",
    "Latitude": 32.8152064,
    "Longitude": -115.5700028
  },
  {
    "Address": "72-800 Dinah Shore Drive",
    "City": "Palm Desert",
    "State": "California",
    "Zip Code": "92211-0817",
    "Latitude": 33.7996392,
    "Longitude": -116.3819564
  },
  {
    "Address": "12350 Carmel Mountain Road",
    "City": "San Diego",
    "State": "California",
    "Zip Code": "92128-4697",
    "Latitude": 32.987241,
    "Longitude": -117.077675
  },
  {
    "Address": "650 Gateway Center Drive",
    "City": "San Diego",
    "State": "California",
    "Zip Code": "92102-4594",
    "Latitude": 32.712739,
    "Longitude": -117.11613
  },
  {
    "Address": "1755 Hacienda Drive",
    "City": "Vista",
    "State": "California",
    "Zip Code": "92081-4546",
    "Latitude": 33.1879309,
    "Longitude": -117.2767568
  },
  {
    "Address": "101 Town Center Parkway",
    "City": "Santee",
    "State": "California",
    "Zip Code": "92071-5899",
    "Latitude": 32.840642,
    "Longitude": -116.987356
  },
  {
    "Address": "12155 Tech Center Drive",
    "City": "Poway",
    "State": "California",
    "Zip Code": "92064-7156",
    "Latitude": 32.93649,
    "Longitude": -117.033125
  },
  {
    "Address": "951 Palomar Airport Road",
    "City": "Carlsbad",
    "State": "California",
    "Zip Code": "92011-1110",
    "Latitude": 33.1201381,
    "Longitude": -117.3165503
  },
  {
    "Address": "8125 Fletcher Parkway",
    "City": "La Mesa",
    "State": "California",
    "Zip Code": "91942-2934",
    "Latitude": 32.773971,
    "Longitude": -117.024305
  },
  {
    "Address": "1130 Broadway",
    "City": "Chula Vista",
    "State": "California",
    "Zip Code": "91911-2707",
    "Latitude": 32.6089545,
    "Longitude": -117.0809526
  },
  {
    "Address": "895 East H Street",
    "City": "Chula Vista",
    "State": "California",
    "Zip Code": "91910-7807",
    "Latitude": 32.637276,
    "Longitude": -117.022199
  },
  {
    "Address": "2207 West Commonwealth Avenue",
    "City": "Alhambra",
    "State": "California",
    "Zip Code": "91803-1302",
    "Latitude": 34.089515,
    "Longitude": -118.148531
  },
  {
    "Address": "520 N Lone Hill Ave",
    "City": "San Dimas",
    "State": "California",
    "Zip Code": "91773-1725",
    "Latitude": 34.112139,
    "Longitude": -117.82633
  },
  {
    "Address": "9404 Central Avenue",
    "City": "Montclair",
    "State": "California",
    "Zip Code": "91763-2421",
    "Latitude": 34.083039,
    "Longitude": -117.690661
  },
  {
    "Address": "17550 Castleton St.",
    "City": "City of Industry",
    "State": "California",
    "Zip Code": "91748-1701",
    "Latitude": 33.994075,
    "Longitude": -117.922
  },
  {
    "Address": "11800 4th Street",
    "City": "Rancho Cucamonga",
    "State": "California",
    "Zip Code": "91739-9318",
    "Latitude": 34.078576,
    "Longitude": -117.5482714
  },
  {
    "Address": "13111 Peyton Drive",
    "City": "Chino Hills",
    "State": "California",
    "Zip Code": "91709-6002",
    "Latitude": 34.014463,
    "Longitude": -117.741815
  },
  {
    "Address": "1220 West Foothill Boulevard",
    "City": "Azusa",
    "State": "California",
    "Zip Code": "91702-2819",
    "Latitude": 34.131982,
    "Longitude": -117.925681
  },
  {
    "Address": "1051 Burbank Blvd.",
    "City": "Burbank",
    "State": "California",
    "Zip Code": "91506-1421",
    "Latitude": 34.185739,
    "Longitude": -118.324045
  },
  {
    "Address": "6100 Sepulveda Boulevard",
    "City": "Van Nuys",
    "State": "California",
    "Zip Code": "91411-2503",
    "Latitude": 34.181613,
    "Longitude": -118.46401
  },
  {
    "Address": "18649 Via Princessa",
    "City": "Santa Clarita",
    "State": "California",
    "Zip Code": "91387-4935",
    "Latitude": 34.4027129,
    "Longitude": -118.4550432
  },
  {
    "Address": "5700 Lindero Canyon Road",
    "City": "Westlake Village",
    "State": "California",
    "Zip Code": "91362-4063",
    "Latitude": 34.152307,
    "Longitude": -118.797131
  },
  {
    "Address": "8810 Tampa Avenue",
    "City": "Northridge",
    "State": "California",
    "Zip Code": "91324-3519",
    "Latitude": 34.230765,
    "Longitude": -118.551069
  },
  {
    "Address": "21300 Roscoe Boulevard",
    "City": "Canoga Park",
    "State": "California",
    "Zip Code": "91304-4200",
    "Latitude": 34.218644,
    "Longitude": -118.596119
  },
  {
    "Address": "2200 East Willow Street",
    "City": "Signal Hill",
    "State": "California",
    "Zip Code": "90806-2132",
    "Latitude": 33.8043173,
    "Longitude": -118.166725
  },
  {
    "Address": "340 Lakewood Center Mall",
    "City": "Lakewood",
    "State": "California",
    "Zip Code": "90712-2409",
    "Latitude": 33.850463,
    "Longitude": -118.136453
  },
  {
    "Address": "12324 Hoxie Avenue",
    "City": "Norwalk",
    "State": "California",
    "Zip Code": "90650-2266",
    "Latitude": 33.919958,
    "Longitude": -118.102519
  },
  {
    "Address": "1345 North Montebello Boulevard",
    "City": "Montebello",
    "State": "California",
    "Zip Code": "90640-2585",
    "Latitude": 34.032917,
    "Longitude": -118.097463
  },
  {
    "Address": "101 N Beach Blvd",
    "City": "La Habra",
    "State": "California",
    "Zip Code": "90631-4468",
    "Latitude": 33.932029,
    "Longitude": -117.969786
  },
  {
    "Address": "2751 Sky Park Drive",
    "City": "Torrance",
    "State": "California",
    "Zip Code": "90505-5351",
    "Latitude": 33.800813,
    "Longitude": -118.34993
  },
  {
    "Address": "3560 West Century Blvd",
    "City": "Inglewood",
    "State": "California",
    "Zip Code": "90303-1201",
    "Latitude": 33.943257,
    "Longitude": -118.333856
  },
  {
    "Address": "13463 Washington Boulevard",
    "City": "Marina del Rey",
    "State": "California",
    "Zip Code": "90292-5658",
    "Latitude": 33.992576,
    "Longitude": -118.446821
  },
  {
    "Address": "14501 Hindry Avenue",
    "City": "Hawthorne",
    "State": "California",
    "Zip Code": "90250-6748",
    "Latitude": 33.898805,
    "Longitude": -118.372745
  },
  {
    "Address": "2901 Los Feliz Boulevard",
    "City": "Los Angeles",
    "State": "California",
    "Zip Code": "90039-1502",
    "Latitude": 34.1285583,
    "Longitude": -118.2636796
  },
  {
    "Address": "1051 Hume Way",
    "City": "Vacaville",
    "State": "California",
    "Zip Code": "95687",
    "Latitude": 38.3506756,
    "Longitude": -121.9817708
  },
  {
    "Address": "2955 North Tegner Road",
    "City": "Turlock",
    "State": "California",
    "Zip Code": "95380",
    "Latitude": 37.519131,
    "Longitude": -120.888552
  },
  {
    "Address": "3250 W. Grant Line Road",
    "City": "Tracy",
    "State": "California",
    "Zip Code": "95377",
    "Latitude": 37.7510679,
    "Longitude": -121.475091
  },
  {
    "Address": "7251 Camino Arroyo",
    "City": "Gilroy",
    "State": "California",
    "Zip Code": "95020",
    "Latitude": 37.008207,
    "Longitude": -121.556447
  },
  {
    "Address": "5901 Redwood Drive",
    "City": "Rohnert Park",
    "State": "California",
    "Zip Code": "94928",
    "Latitude": 38.3527259,
    "Longitude": -122.717092
  },
  {
    "Address": "28505 Hesperian Blvd",
    "City": "Hayward",
    "State": "California",
    "Zip Code": "94545",
    "Latitude": 37.6163221,
    "Longitude": -122.0889509
  },
  {
    "Address": "2300 Middlefield Rd",
    "City": "Redwood City",
    "State": "California",
    "Zip Code": "94063",
    "Latitude": 37.478656,
    "Longitude": -122.216527
  },
  {
    "Address": "7100 N. Abby Street",
    "City": "Fresno",
    "State": "California",
    "Zip Code": "93720",
    "Latitude": 36.839426,
    "Longitude": -119.78774
  },
  {
    "Address": "4900 Panama Lane",
    "City": "Bakersfield",
    "State": "California",
    "Zip Code": "93308",
    "Latitude": 35.297271,
    "Longitude": -119.058275
  },
  {
    "Address": "3800 Rosedale Highway",
    "City": "Bakersfield",
    "State": "California",
    "Zip Code": "93308",
    "Latitude": 35.384837,
    "Longitude": -119.048452
  },
  {
    "Address": "27220 Heather Ridge Road",
    "City": "Laguna Niguel",
    "State": "California",
    "Zip Code": "92677",
    "Latitude": 33.567618,
    "Longitude": -117.711571
  },
  {
    "Address": "26610 Ynez Road",
    "City": "Temecula",
    "State": "California",
    "Zip Code": "92591",
    "Latitude": 33.521227,
    "Longitude": -117.154362
  },
  {
    "Address": "16505 Sierra Lakes Parkway",
    "City": "Fontana",
    "State": "California",
    "Zip Code": "92336",
    "Latitude": 34.137557,
    "Longitude": -117.442672
  },
  {
    "Address": "79795 Hwy 111",
    "City": "La Quinta",
    "State": "California",
    "Zip Code": "92253",
    "Latitude": 33.704896,
    "Longitude": -116.272801
  },
  {
    "Address": "4605 Morena Boulevard",
    "City": "San Diego",
    "State": "California",
    "Zip Code": "92117",
    "Latitude": 32.8234958,
    "Longitude": -117.2282851
  },
  {
    "Address": "7803 Othello Ave",
    "City": "San Diego",
    "State": "California",
    "Zip Code": "92111",
    "Latitude": 32.816251,
    "Longitude": -117.153631
  },
  {
    "Address": "13550 W Paxton St",
    "City": "Pacoima",
    "State": "California",
    "Zip Code": "91331",
    "Latitude": 34.2725894,
    "Longitude": -118.4276271
  },
  {
    "Address": "5401 Katella Ave",
    "City": "Cypress",
    "State": "California",
    "Zip Code": "90720",
    "Latitude": 33.8031834,
    "Longitude": -118.038976
  },
  {
    "Address": "12530 Prairie Ave",
    "City": "Hawthorne",
    "State": "California",
    "Zip Code": "90250",
    "Latitude": 33.918618,
    "Longitude": -118.342576
  },
  {
    "Address": "6333 Telegraph Rd",
    "City": "Commerce",
    "State": "California",
    "Zip Code": "90040",
    "Latitude": 33.9947586,
    "Longitude": -118.1430614
  },
  {
    "Address": "170 Cooley Mesa Rd",
    "City": "Gypsum",
    "State": "Colorado",
    "Zip Code": "81637-9707",
    "Latitude": 39.6433872,
    "Longitude": -106.8885487
  },
  {
    "Address": "5885 Barnes Road",
    "City": "Colorado Springs",
    "State": "Colorado",
    "Zip Code": "80922-3512",
    "Latitude": 38.892736,
    "Longitude": -104.71771
  },
  {
    "Address": "18414 Cottonwood Dr",
    "City": "Parker",
    "State": "Colorado",
    "Zip Code": "80138-8876",
    "Latitude": 39.5580896,
    "Longitude": -104.7758852
  },
  {
    "Address": "8686 Park Meadows Center Drive",
    "City": "Littleton",
    "State": "Colorado",
    "Zip Code": "80124-5129",
    "Latitude": 39.561203,
    "Longitude": -104.874753
  },
  {
    "Address": "7900 West Quincy Avenue",
    "City": "Littleton",
    "State": "Colorado",
    "Zip Code": "80123-2472",
    "Latitude": 39.638285,
    "Longitude": -105.082856
  },
  {
    "Address": "4000 River Point Parkway",
    "City": "Sheridan",
    "State": "Colorado",
    "Zip Code": "80110-3316",
    "Latitude": 39.644445,
    "Longitude": -105.006451
  },
  {
    "Address": "6400 West 92nd Avenue",
    "City": "Westminster",
    "State": "Colorado",
    "Zip Code": "80031-2952",
    "Latitude": 39.862237,
    "Longitude": -105.0661949
  },
  {
    "Address": "600 Marshall Road",
    "City": "Superior",
    "State": "Colorado",
    "Zip Code": "80027-9730",
    "Latitude": 39.9576167,
    "Longitude": -105.1699298
  },
  {
    "Address": "16375 N Washington St",
    "City": "Thornton",
    "State": "Colorado",
    "Zip Code": "80023-8907",
    "Latitude": 39.991358,
    "Longitude": -104.983163
  },
  {
    "Address": "1471 South Havana",
    "City": "Aurora",
    "State": "Colorado",
    "Zip Code": "80012-4013",
    "Latitude": 39.690471,
    "Longitude": -104.86808
  },
  {
    "Address": "5195 Wadsworth Blvd.",
    "City": "Arvada",
    "State": "Colorado",
    "Zip Code": "80002-4617",
    "Latitude": 39.790074,
    "Longitude": -105.082637
  },
  {
    "Address": "5050 N Nevada Ave",
    "City": "Colorado Springs",
    "State": "Colorado",
    "Zip Code": "80918",
    "Latitude": 38.9037505,
    "Longitude": -104.8172136
  },
  {
    "Address": "779 Connecticut Ave",
    "City": "Norwalk",
    "State": "Connecticut",
    "Zip Code": "06854-1615",
    "Latitude": 41.0919457,
    "Longitude": -73.4515808
  },
  {
    "Address": "200 Federal Road",
    "City": "Brookfield",
    "State": "Connecticut",
    "Zip Code": "06804-2527",
    "Latitude": 41.4422731,
    "Longitude": -73.4051279
  },
  {
    "Address": "3600 East Main Street",
    "City": "Waterbury",
    "State": "Connecticut",
    "Zip Code": "06705-3851",
    "Latitude": 41.542672,
    "Longitude": -72.9686675
  },
  {
    "Address": "1718 Boston Post Road",
    "City": "Milford",
    "State": "Connecticut",
    "Zip Code": "06460-2718",
    "Latitude": 41.249661,
    "Longitude": -73.023977
  },
  {
    "Address": "75 Freshwater Blvd",
    "City": "Enfield",
    "State": "Connecticut",
    "Zip Code": "06082-3854",
    "Latitude": 41.9936047,
    "Longitude": -72.5754399
  },
  {
    "Address": "900 Center Boulevard",
    "City": "Newark",
    "State": "Delaware",
    "Zip Code": "19702-3221",
    "Latitude": 39.677736,
    "Longitude": -75.64737
  },
  {
    "Address": "17800 Congress Avenue",
    "City": "Boca Raton",
    "State": "Florida",
    "Zip Code": "33487",
    "Latitude": 26.411955,
    "Longitude": -80.1008839
  },
  {
    "Address": "6275 Naples Boulevard",
    "City": "Naples",
    "State": "Florida",
    "Zip Code": "34109-2030",
    "Latitude": 26.22026,
    "Longitude": -81.77492
  },
  {
    "Address": "10088 Gulf Center Drive",
    "City": "Fort Myers",
    "State": "Florida",
    "Zip Code": "33913-8961",
    "Latitude": 26.489631,
    "Longitude": -81.785933
  },
  {
    "Address": "7171 Cypress Lake Drive",
    "City": "Fort Myers",
    "State": "Florida",
    "Zip Code": "33907-6521",
    "Latitude": 26.544447,
    "Longitude": -81.8742089
  },
  {
    "Address": "10921 Causeway Blvd.",
    "City": "Brandon",
    "State": "Florida",
    "Zip Code": "33511-2903",
    "Latitude": 27.921491,
    "Longitude": -82.330936
  },
  {
    "Address": "1873 West Lantana Road",
    "City": "Lantana",
    "State": "Florida",
    "Zip Code": "33462-2698",
    "Latitude": 26.5872905,
    "Longitude": -80.0726927
  },
  {
    "Address": "11001 Southern Blvd - Ste 160",
    "City": "Royal Palm Beach",
    "State": "Florida",
    "Zip Code": "33411-4240",
    "Latitude": 26.6810314,
    "Longitude": -80.2195563
  },
  {
    "Address": "3250 Northlake Boulevard",
    "City": "Lake Park",
    "State": "Florida",
    "Zip Code": "33403-1702",
    "Latitude": 26.8083519,
    "Longitude": -80.0879667
  },
  {
    "Address": "1890 South University Drive",
    "City": "Davie",
    "State": "Florida",
    "Zip Code": "33324-5847",
    "Latitude": 26.0969039,
    "Longitude": -80.2509582
  },
  {
    "Address": "13450 SW 120th St",
    "City": "Kendall",
    "State": "Florida",
    "Zip Code": "33186-7393",
    "Latitude": 25.655668,
    "Longitude": -80.412069
  },
  {
    "Address": "14585 Biscayne Boulevard",
    "City": "North Miami Beach",
    "State": "Florida",
    "Zip Code": "33181-1209",
    "Latitude": 25.909564,
    "Longitude": -80.156203
  },
  {
    "Address": "8300 Park Boulevard",
    "City": "Miami",
    "State": "Florida",
    "Zip Code": "33126-3832",
    "Latitude": 25.774109,
    "Longitude": -80.330536
  },
  {
    "Address": "1800 West Sample Road",
    "City": "Pompano Beach",
    "State": "Florida",
    "Zip Code": "33064-1324",
    "Latitude": 26.273566,
    "Longitude": -80.148255
  },
  {
    "Address": "15915 Pines Blvd",
    "City": "Pembroke Pines",
    "State": "Florida",
    "Zip Code": "33027-1201",
    "Latitude": 26.009617,
    "Longitude": -80.360331
  },
  {
    "Address": "16580 NW 59th Avenue",
    "City": "Miami",
    "State": "Florida",
    "Zip Code": "33014-5611",
    "Latitude": 25.923451,
    "Longitude": -80.298706
  },
  {
    "Address": "2101 Water Bridge Blvd",
    "City": "Orlando",
    "State": "Florida",
    "Zip Code": "32837-9283",
    "Latitude": 28.404252,
    "Longitude": -81.40671
  },
  {
    "Address": "3333 University Boulevard",
    "City": "Winter Park",
    "State": "Florida",
    "Zip Code": "32792-7428",
    "Latitude": 28.59907,
    "Longitude": -81.30024
  },
  {
    "Address": "741 Orange Avenue",
    "City": "Altamonte Springs",
    "State": "Florida",
    "Zip Code": "32714-3031",
    "Latitude": 28.6618672,
    "Longitude": -81.4176945
  },
  {
    "Address": "4067 Lagniappe Way",
    "City": "Tallahassee",
    "State": "Florida",
    "Zip Code": "32317-1201",
    "Latitude": 30.4606461,
    "Longitude": -84.2124709
  },
  {
    "Address": "4901 Gate Parkway",
    "City": "Jacksonville",
    "State": "Florida",
    "Zip Code": "32246-4405",
    "Latitude": 30.252071,
    "Longitude": -81.533776
  },
  {
    "Address": "2655 Gulf to Bay Blvd.",
    "City": "Clearwater",
    "State": "Florida",
    "Zip Code": "33759",
    "Latitude": 27.9604528,
    "Longitude": -82.7275752
  },
  {
    "Address": "100 Cobb Parkway",
    "City": "Ringgold",
    "State": "Georgia",
    "Zip Code": "30742",
    "Latitude": 34.9326477,
    "Longitude": -85.2547988
  },
  {
    "Address": "1550 Mall of Georgia Blvd",
    "City": "Buford",
    "State": "Georgia",
    "Zip Code": "30519-6551",
    "Latitude": 34.0620378,
    "Longitude": -83.9943156
  },
  {
    "Address": "2900 Cumberland Mall",
    "City": "Atlanta",
    "State": "Georgia",
    "Zip Code": "30339-8107",
    "Latitude": 33.8816153,
    "Longitude": -84.4694359
  },
  {
    "Address": "6350 Peachtree Dunwoody Rd N.E.",
    "City": "Atlanta",
    "State": "Georgia",
    "Zip Code": "30328-4527",
    "Latitude": 33.927816,
    "Longitude": -84.352462
  },
  {
    "Address": "1700 Mount Zion Road",
    "City": "Morrow",
    "State": "Georgia",
    "Zip Code": "30260-3014",
    "Latitude": 33.572052,
    "Longitude": -84.333989
  },
  {
    "Address": "645 Barrett Parkway",
    "City": "Kennesaw",
    "State": "Georgia",
    "Zip Code": "30144-4922",
    "Latitude": 34.0092178,
    "Longitude": -84.5686483
  },
  {
    "Address": "3980 Venture Drive",
    "City": "Duluth",
    "State": "Georgia",
    "Zip Code": "30096-5077",
    "Latitude": 33.947764,
    "Longitude": -84.143039
  },
  {
    "Address": "2855 Jordan Ct",
    "City": "Alpharetta",
    "State": "Georgia",
    "Zip Code": "30004-3869",
    "Latitude": 34.090513,
    "Longitude": -84.277902
  },
  {
    "Address": "500 Brookhaven Ave",
    "City": "Atlanta",
    "State": "Georgia",
    "Zip Code": "30319",
    "Latitude": 33.8709805,
    "Longitude": -84.3350283
  },
  {
    "Address": "73-5600 Maiau Street",
    "City": "Kailua-Kona (Hawaii)",
    "State": "Hawaii",
    "Zip Code": "96740-2630",
    "Latitude": 19.687344,
    "Longitude": -156.017457
  },
  {
    "Address": "333A Keahole Street",
    "City": "Honolulu (Oahu)",
    "State": "Hawaii",
    "Zip Code": "96825-3428",
    "Latitude": 21.282117,
    "Longitude": -157.7119219
  },
  {
    "Address": "94-1231 Ka Uka Blvd",
    "City": "Waipahu (Oahu)",
    "State": "Hawaii",
    "Zip Code": "96797-4495",
    "Latitude": 21.4188931,
    "Longitude": -158.0063848
  },
  {
    "Address": "4300 Nuhou St",
    "City": "Lihue",
    "State": "Hawaii",
    "Zip Code": "96766-8002",
    "Latitude": 21.9665355,
    "Longitude": -159.3799149
  },
  {
    "Address": "540 Haleakala Highway",
    "City": "Kahului (Maui)",
    "State": "Hawaii",
    "Zip Code": "96732-2302",
    "Latitude": 20.887082,
    "Longitude": -156.451364
  },
  {
    "Address": "4589 Kapolei Parkway",
    "City": "Kapolei (Oahu)",
    "State": "Hawaii",
    "Zip Code": "96707-1879",
    "Latitude": 21.3272958,
    "Longitude": -158.0881083
  },
  {
    "Address": "525 Alakawa Street",
    "City": "Iwilei (Oahu)",
    "State": "Hawaii",
    "Zip Code": "96817",
    "Latitude": 21.3184739,
    "Longitude": -157.870711
  },
  {
    "Address": "355 East Neider Avenue",
    "City": "Coeur D\\'Alene",
    "State": "Idaho",
    "Zip Code": "83815-3723",
    "Latitude": 47.7080223,
    "Longitude": -116.7819023
  },
  {
    "Address": "2051 S. Cole Road",
    "City": "Boise",
    "State": "Idaho",
    "Zip Code": "83709-2815",
    "Latitude": 43.585487,
    "Longitude": -116.276686
  },
  {
    "Address": "16700 N Marketplace Blvd",
    "City": "Nampa",
    "State": "Idaho",
    "Zip Code": "83687-7909",
    "Latitude": 43.615175,
    "Longitude": -116.592784
  },
  {
    "Address": "731 Pole Line Road",
    "City": "Twin Falls",
    "State": "Idaho",
    "Zip Code": "83301-3036",
    "Latitude": 42.591998,
    "Longitude": -114.4656395
  },
  {
    "Address": "305 West Quinn Rd",
    "City": "Pocatello",
    "State": "Idaho",
    "Zip Code": "83201-4988",
    "Latitude": 42.905739,
    "Longitude": -112.468931
  },
  {
    "Address": "7311 North Melvina Ave",
    "City": "Niles",
    "State": "Illinois",
    "Zip Code": "60714-3905",
    "Latitude": 42.014665,
    "Longitude": -87.7815541
  },
  {
    "Address": "7300 S. Cicero Ave",
    "City": "Bedford Park",
    "State": "Illinois",
    "Zip Code": "60629-5817",
    "Latitude": 41.7600708,
    "Longitude": -87.7418497
  },
  {
    "Address": "2746 N. Clybourn Avenue",
    "City": "Chicago",
    "State": "Illinois",
    "Zip Code": "60614-1006",
    "Latitude": 41.9297729,
    "Longitude": -87.6770447
  },
  {
    "Address": "1901 West 22nd Street",
    "City": "Oak Brook",
    "State": "Illinois",
    "Zip Code": "60523-1785",
    "Latitude": 41.845569,
    "Longitude": -87.964888
  },
  {
    "Address": "9915 W 159th St",
    "City": "Orland Park",
    "State": "Illinois",
    "Zip Code": "60467-4572",
    "Latitude": 41.6011911,
    "Longitude": -87.8618256
  },
  {
    "Address": "1375 North Meacham Rd",
    "City": "Schaumburg",
    "State": "Illinois",
    "Zip Code": "60173-4805",
    "Latitude": 42.0565401,
    "Longitude": -88.0449252
  },
  {
    "Address": "250 N. Randall Rd.",
    "City": "Lake in the Hills",
    "State": "Illinois",
    "Zip Code": "60156-5943",
    "Latitude": 42.1788808,
    "Longitude": -88.3387302
  },
  {
    "Address": "505 W. Army Trail Road",
    "City": "Bloomingdale",
    "State": "Illinois",
    "Zip Code": "60108-1391",
    "Latitude": 41.9396832,
    "Longitude": -88.1323182
  },
  {
    "Address": "680 S. Rand Road",
    "City": "Lake Zurich",
    "State": "Illinois",
    "Zip Code": "60047-3409",
    "Latitude": 42.187135,
    "Longitude": -88.093412
  },
  {
    "Address": "1320 S. Route 59",
    "City": "Naperville",
    "State": "Illinois",
    "Zip Code": "60564",
    "Latitude": 41.7443388,
    "Longitude": -88.2058422
  },
  {
    "Address": "830 E Boughton Rd",
    "City": "Bolingbrook",
    "State": "Illinois",
    "Zip Code": "60440",
    "Latitude": 41.7265993,
    "Longitude": -88.0325566
  },
  {
    "Address": "221 S. Randall Rd",
    "City": "St. Charles",
    "State": "Illinois",
    "Zip Code": "60174",
    "Latitude": 41.9073026,
    "Longitude": -88.3400191
  },
  {
    "Address": "8400 W North Ave",
    "City": "Melrose Park",
    "State": "Illinois",
    "Zip Code": "60160",
    "Latitude": 41.9091302,
    "Longitude": -87.8367543
  },
  {
    "Address": "999 N. Elmhurst Road",
    "City": "Mount Prospect",
    "State": "Illinois",
    "Zip Code": "60056",
    "Latitude": 42.0831646,
    "Longitude": -87.9332458
  },
  {
    "Address": "25901 Riverwoods Rd",
    "City": "Mettawa",
    "State": "Illinois",
    "Zip Code": "60045",
    "Latitude": 42.240048,
    "Longitude": -87.9057161
  },
  {
    "Address": "2900 Patriot Blvd",
    "City": "Glenview",
    "State": "Illinois",
    "Zip Code": "60026",
    "Latitude": 42.1090138,
    "Longitude": -87.8214507
  },
  {
    "Address": "1310 E. 79th Ave",
    "City": "Merrillville",
    "State": "Indiana",
    "Zip Code": "46410-5768",
    "Latitude": 41.4738435,
    "Longitude": -87.3218679
  },
  {
    "Address": "9010 Michigan Road",
    "City": "Indianapolis",
    "State": "Indiana",
    "Zip Code": "46268",
    "Latitude": 39.916735,
    "Longitude": -86.226227
  },
  {
    "Address": "6110 East 86th Street",
    "City": "Castleton",
    "State": "Indiana",
    "Zip Code": "46250",
    "Latitude": 39.913779,
    "Longitude": -86.061793
  },
  {
    "Address": "7205 Mills Civic Parkway",
    "City": "West Des Moines",
    "State": "Iowa",
    "Zip Code": "50266-8140",
    "Latitude": 41.562811,
    "Longitude": -93.804976
  },
  {
    "Address": "9350 Marshall Drive",
    "City": "Lenexa",
    "State": "Kansas",
    "Zip Code": "66215-3845",
    "Latitude": 38.95885,
    "Longitude": -94.733002
  },
  {
    "Address": "12221 Blue Valley Parkway",
    "City": "Overland Park",
    "State": "Kansas",
    "Zip Code": "66213",
    "Latitude": 38.906906,
    "Longitude": -94.670999
  },
  {
    "Address": "5020 Norton Healthcare Blvd",
    "City": "Louisville",
    "State": "Kentucky",
    "Zip Code": "40241-2835",
    "Latitude": 38.3163673,
    "Longitude": -85.5728641
  },
  {
    "Address": "2400 Five Lees Lane",
    "City": "Lanham",
    "State": "Maryland",
    "Zip Code": "20706",
    "Latitude": 38.9731445,
    "Longitude": -76.8160858
  },
  {
    "Address": "10 Monocacy Blvd.",
    "City": "Frederick",
    "State": "Maryland",
    "Zip Code": "21701-6554",
    "Latitude": 39.4018344,
    "Longitude": -77.4075364
  },
  {
    "Address": "9919 Pulaski Highway",
    "City": "Baltimore",
    "State": "Maryland",
    "Zip Code": "21220-1423",
    "Latitude": 39.358195,
    "Longitude": -76.444565
  },
  {
    "Address": "7077 Arundel Mills Circle",
    "City": "Hanover",
    "State": "Maryland",
    "Zip Code": "21076-1387",
    "Latitude": 39.15582,
    "Longitude": -76.730744
  },
  {
    "Address": "6675 Marie Curie Drive",
    "City": "Elkridge",
    "State": "Maryland",
    "Zip Code": "21075-6457",
    "Latitude": 39.186369,
    "Longitude": -76.793645
  },
  {
    "Address": "575 East Ordnance Road",
    "City": "Glen Burnie",
    "State": "Maryland",
    "Zip Code": "21060-6575",
    "Latitude": 39.2035401,
    "Longitude": -76.5939428
  },
  {
    "Address": "880 Russell Avenue",
    "City": "Gaithersburg",
    "State": "Maryland",
    "Zip Code": "20879-3506",
    "Latitude": 39.155646,
    "Longitude": -77.214124
  },
  {
    "Address": "10925 Baltimore Avenue (Route 1)",
    "City": "Beltsville",
    "State": "Maryland",
    "Zip Code": "20705-2117",
    "Latitude": 37.228312,
    "Longitude": -77.3903001
  },
  {
    "Address": "16006 Crain Highway SE",
    "City": "Brandywine",
    "State": "Maryland",
    "Zip Code": "20613-8081",
    "Latitude": 38.6645584,
    "Longitude": -76.8747015
  },
  {
    "Address": "71 Second Avenue",
    "City": "Waltham",
    "State": "Massachusetts",
    "Zip Code": "02451-1107",
    "Latitude": 42.395066,
    "Longitude": -71.265264
  },
  {
    "Address": "120 Stockwell Drive",
    "City": "Avon",
    "State": "Massachusetts",
    "Zip Code": "02322-1149",
    "Latitude": 42.136598,
    "Longitude": -71.066458
  },
  {
    "Address": "400 Commercial Circle",
    "City": "Dedham",
    "State": "Massachusetts",
    "Zip Code": "02026-2635",
    "Latitude": 42.230996,
    "Longitude": -71.17497
  },
  {
    "Address": "11 Newbury Street (Route 1)",
    "City": "Danvers",
    "State": "Massachusetts",
    "Zip Code": "01923-1014",
    "Latitude": 37.226693,
    "Longitude": -77.401371
  },
  {
    "Address": "119 Daggett Drive",
    "City": "West Springfield",
    "State": "Massachusetts",
    "Zip Code": "01089-4672",
    "Latitude": 42.13216,
    "Longitude": -72.620485
  },
  {
    "Address": "2 Mystic View Road",
    "City": "Everett",
    "State": "Massachusetts",
    "Zip Code": "2149",
    "Latitude": 42.4017251,
    "Longitude": -71.0695264
  },
  {
    "Address": "5100 28th Street SE",
    "City": "Grand Rapids",
    "State": "Michigan",
    "Zip Code": "49512-2049",
    "Latitude": 42.910564,
    "Longitude": -85.542713
  },
  {
    "Address": "4901 Wilson Avenue",
    "City": "Wyoming",
    "State": "Michigan",
    "Zip Code": "49418-8788",
    "Latitude": 42.875818,
    "Longitude": -85.76385
  },
  {
    "Address": "400 Brown Road",
    "City": "Auburn Hills",
    "State": "Michigan",
    "Zip Code": "48326-1305",
    "Latitude": 42.7070854,
    "Longitude": -83.2963467
  },
  {
    "Address": "45460 Market Street",
    "City": "Shelby Township",
    "State": "Michigan",
    "Zip Code": "48315-6204",
    "Latitude": 42.6295851,
    "Longitude": -82.98077
  },
  {
    "Address": "2343 South Telegraph Rd",
    "City": "Bloomfield",
    "State": "Michigan",
    "Zip Code": "48302-0254",
    "Latitude": 42.606916,
    "Longitude": -83.293322
  },
  {
    "Address": "20000 Haggerty Rd",
    "City": "Livonia",
    "State": "Michigan",
    "Zip Code": "48152-1011",
    "Latitude": 42.432885,
    "Longitude": -83.430471
  },
  {
    "Address": "13700 Middlebelt Road",
    "City": "Livonia",
    "State": "Michigan",
    "Zip Code": "48150-2215",
    "Latitude": 42.3813419,
    "Longitude": -83.332026
  },
  {
    "Address": "6700 Whitmore Lake Rd",
    "City": "Brighton",
    "State": "Michigan",
    "Zip Code": "48116-2160",
    "Latitude": 42.5044786,
    "Longitude": -83.7594455
  },
  {
    "Address": "30550 Stephenson Highway",
    "City": "Madison Heights",
    "State": "Michigan",
    "Zip Code": "48071-1611",
    "Latitude": 42.5161919,
    "Longitude": -83.117129
  },
  {
    "Address": "27118 Gratiot Avenue",
    "City": "Roseville",
    "State": "Michigan",
    "Zip Code": "48066-2915",
    "Latitude": 42.4959314,
    "Longitude": -82.9371897
  },
  {
    "Address": "3000 Commerce Crossing",
    "City": "Commerce Tnshp",
    "State": "Michigan",
    "Zip Code": "48390",
    "Latitude": 42.534006,
    "Longitude": -83.444799
  },
  {
    "Address": "12547 Riverdale Blvd.",
    "City": "Coon Rapids",
    "State": "Minnesota",
    "Zip Code": "55448-6708",
    "Latitude": 45.1985438,
    "Longitude": -93.3502188
  },
  {
    "Address": "5801 16th Street West",
    "City": "St. Louis Park",
    "State": "Minnesota",
    "Zip Code": "55416-1446",
    "Latitude": 44.9676254,
    "Longitude": -93.3495534
  },
  {
    "Address": "11330 Fountains Dr N",
    "City": "Maple Grove",
    "State": "Minnesota",
    "Zip Code": "55369-7200",
    "Latitude": 45.09298,
    "Longitude": -93.424382
  },
  {
    "Address": "12011 Technology Drive",
    "City": "Eden Prairie",
    "State": "Minnesota",
    "Zip Code": "55344-3620",
    "Latitude": 44.8603208,
    "Longitude": -93.4358767
  },
  {
    "Address": "1431 Beam Ave",
    "City": "Maplewood",
    "State": "Minnesota",
    "Zip Code": "55109-1064",
    "Latitude": 45.029375,
    "Longitude": -93.039964
  },
  {
    "Address": "14050 Burnhaven Dr",
    "City": "Burnsville",
    "State": "Minnesota",
    "Zip Code": "55337",
    "Latitude": 44.7481179,
    "Longitude": -93.2934839
  },
  {
    "Address": "241 East Linwood Blvd",
    "City": "Kansas City",
    "State": "Missouri",
    "Zip Code": "64111-1119",
    "Latitude": 39.0682148,
    "Longitude": -94.5815625
  },
  {
    "Address": "19040 E. Valley View Pkwy",
    "City": "Independence",
    "State": "Missouri",
    "Zip Code": "64055-7004",
    "Latitude": 39.0372034,
    "Longitude": -94.3551426
  },
  {
    "Address": "200 Costco Way",
    "City": "St. Peters",
    "State": "Missouri",
    "Zip Code": "63376-4385",
    "Latitude": 38.797262,
    "Longitude": -90.607339
  },
  {
    "Address": "4200 Rusty Road",
    "City": "St. Louis",
    "State": "Missouri",
    "Zip Code": "63128-1973",
    "Latitude": 38.506798,
    "Longitude": -90.3408851
  },
  {
    "Address": "301 Highlands Blvd Drive",
    "City": "Manchester",
    "State": "Missouri",
    "Zip Code": "63011",
    "Latitude": 38.597951,
    "Longitude": -90.506914
  },
  {
    "Address": "2330 US Highway 93 N",
    "City": "Kalispell",
    "State": "Montana",
    "Zip Code": "59901-2547",
    "Latitude": 48.174177,
    "Longitude": -114.29897
  },
  {
    "Address": "3220 Northern Pacific Avenue",
    "City": "Missoula",
    "State": "Montana",
    "Zip Code": "59808-1338",
    "Latitude": 46.89293,
    "Longitude": -114.037358
  },
  {
    "Address": "2505 Catron Street",
    "City": "Bozeman",
    "State": "Montana",
    "Zip Code": "59718-7993",
    "Latitude": 45.71334,
    "Longitude": -111.070653
  },
  {
    "Address": "2195 E Custer Ave",
    "City": "Helena",
    "State": "Montana",
    "Zip Code": "59602-1217",
    "Latitude": 46.616615,
    "Longitude": -112.0049737
  },
  {
    "Address": "2290 King Avenue West",
    "City": "Billings",
    "State": "Montana",
    "Zip Code": "59102-7415",
    "Latitude": 45.7550163,
    "Longitude": -108.5727142
  },
  {
    "Address": "12300 West Dodge Rd",
    "City": "Omaha",
    "State": "Nebraska",
    "Zip Code": "68154-2382",
    "Latitude": 41.265224,
    "Longitude": -96.10534
  },
  {
    "Address": "700 Old Clear Creek Road",
    "City": "Carson City",
    "State": "Nevada",
    "Zip Code": "89705-6853",
    "Latitude": 39.1123484,
    "Longitude": -119.8451288
  },
  {
    "Address": "2200 Harvard Way",
    "City": "Reno",
    "State": "Nevada",
    "Zip Code": "89502-4000",
    "Latitude": 39.503102,
    "Longitude": -119.785095
  },
  {
    "Address": "4810 Galleria Parkway",
    "City": "Sparks",
    "State": "Nevada",
    "Zip Code": "89436-9605",
    "Latitude": 39.579204,
    "Longitude": -119.738792
  },
  {
    "Address": "801 S. Pavilion Center Drive",
    "City": "Las Vegas",
    "State": "Nevada",
    "Zip Code": "89144-4566",
    "Latitude": 36.1633476,
    "Longitude": -115.3318905
  },
  {
    "Address": "6555 N Decatur Blvd",
    "City": "Las Vegas",
    "State": "Nevada",
    "Zip Code": "89131-2796",
    "Latitude": 36.278946,
    "Longitude": -115.209445
  },
  {
    "Address": "222 S Martin Luther King Blvd",
    "City": "Las Vegas",
    "State": "Nevada",
    "Zip Code": "89106-4305",
    "Latitude": 36.1721288,
    "Longitude": -115.1608236
  },
  {
    "Address": "791 Marks Street",
    "City": "Henderson",
    "State": "Nevada",
    "Zip Code": "89014-8601",
    "Latitude": 36.06985,
    "Longitude": -115.037166
  },
  {
    "Address": "311 Daniel Webster Highway",
    "City": "Nashua",
    "State": "New Hampshire",
    "Zip Code": "03060-5702",
    "Latitude": 42.7023,
    "Longitude": -71.443126
  },
  {
    "Address": "2210 Route 27 North",
    "City": "Edison",
    "State": "New Jersey",
    "Zip Code": "08817-3314",
    "Latitude": 40.5317305,
    "Longitude": -74.3766237
  },
  {
    "Address": "325 Promenade Blvd.",
    "City": "Bridgewater",
    "State": "New Jersey",
    "Zip Code": "08807-3457",
    "Latitude": 40.5644881,
    "Longitude": -74.5553081
  },
  {
    "Address": "465 Route 70",
    "City": "Brick",
    "State": "New Jersey",
    "Zip Code": "08723-4049",
    "Latitude": 40.0547573,
    "Longitude": -74.1563178
  },
  {
    "Address": "100 Centerton Road",
    "City": "Mount Laurel",
    "State": "New Jersey",
    "Zip Code": "08054-6103",
    "Latitude": 39.9505868,
    "Longitude": -74.8761132
  },
  {
    "Address": "245 Stafford Park Blvd",
    "City": "Stafford Township",
    "State": "New Jersey",
    "Zip Code": "08050-2734",
    "Latitude": 39.70721,
    "Longitude": -74.287661
  },
  {
    "Address": "156 SR-10 West",
    "City": "East Hanover",
    "State": "New Jersey",
    "Zip Code": "07936-2107",
    "Latitude": 40.8096853,
    "Longitude": -74.381266
  },
  {
    "Address": "315 Route 15",
    "City": "Wharton",
    "State": "New Jersey",
    "Zip Code": "07885-1224",
    "Latitude": 40.906896,
    "Longitude": -74.569445
  },
  {
    "Address": "2835 Route 35 South",
    "City": "Hazlet",
    "State": "New Jersey",
    "Zip Code": "07730-1516",
    "Latitude": 40.4194098,
    "Longitude": -74.1705136
  },
  {
    "Address": "80 South River Street",
    "City": "Hackensack",
    "State": "New Jersey",
    "Zip Code": "07601-7110",
    "Latitude": 40.876239,
    "Longitude": -74.038818
  },
  {
    "Address": "77 Willowbrook Boulevard",
    "City": "Wayne",
    "State": "New Jersey",
    "Zip Code": "07470-7055",
    "Latitude": 40.8872413,
    "Longitude": -74.2541309
  },
  {
    "Address": "1055 Hudson St",
    "City": "Union",
    "State": "New Jersey",
    "Zip Code": "07083-6809",
    "Latitude": 40.6931,
    "Longitude": -74.2873
  },
  {
    "Address": "20 Bridewell Place",
    "City": "Clifton",
    "State": "New Jersey",
    "Zip Code": "07014-1724",
    "Latitude": 40.830625,
    "Longitude": -74.1366964
  },
  {
    "Address": "500 Eubank Blvd SE",
    "City": "Albuquerque",
    "State": "New Mexico",
    "Zip Code": "87123-3338",
    "Latitude": 35.068225,
    "Longitude": -106.530385
  },
  {
    "Address": "9955 Coors Bypass NW",
    "City": "Albuquerque",
    "State": "New Mexico",
    "Zip Code": "87114-5963",
    "Latitude": 35.19547,
    "Longitude": -106.66139
  },
  {
    "Address": "1420 Renaissance Boulevard NE",
    "City": "Albuquerque",
    "State": "New Mexico",
    "Zip Code": "87107-6811",
    "Latitude": 35.136386,
    "Longitude": -106.614209
  },
  {
    "Address": "3000 Middle Country Road",
    "City": "Nesconset",
    "State": "New York",
    "Zip Code": "11767-1072",
    "Latitude": 40.862057,
    "Longitude": -73.130236
  },
  {
    "Address": "625 Broadhollow Road",
    "City": "Melville",
    "State": "New York",
    "Zip Code": "11747-5007",
    "Latitude": 40.757604,
    "Longitude": -73.420634
  },
  {
    "Address": "125 Beacon Drive",
    "City": "Holbrook",
    "State": "New York",
    "Zip Code": "11741-4309",
    "Latitude": 40.773266,
    "Longitude": -73.050016
  },
  {
    "Address": "10 Garret Place",
    "City": "Commack",
    "State": "New York",
    "Zip Code": "11725-5421",
    "Latitude": 40.8067522,
    "Longitude": -73.2865925
  },
  {
    "Address": "1250 Old Country Road",
    "City": "Westbury",
    "State": "New York",
    "Zip Code": "11590-5641",
    "Latitude": 40.743347,
    "Longitude": -73.601117
  },
  {
    "Address": "605 Rockaway Turnpike",
    "City": "Lawrence",
    "State": "New York",
    "Zip Code": "11559-1029",
    "Latitude": 40.6307824,
    "Longitude": -73.7398576
  },
  {
    "Address": "976 3rd Avenue",
    "City": "Brooklyn",
    "State": "New York",
    "Zip Code": "11232-2400",
    "Latitude": 40.6554813,
    "Longitude": -74.0090742
  },
  {
    "Address": "32-50 Vernon Boulevard",
    "City": "Long Island City",
    "State": "New York",
    "Zip Code": "11106-4927",
    "Latitude": 40.7673216,
    "Longitude": -73.9375771
  },
  {
    "Address": "50 Overlook Boulevard",
    "City": "Nanuet",
    "State": "New York",
    "Zip Code": "10954-5292",
    "Latitude": 41.107253,
    "Longitude": -74.025274
  },
  {
    "Address": "1 Industrial Lane",
    "City": "New Rochelle",
    "State": "New York",
    "Zip Code": "10805-1203",
    "Latitude": 40.896403,
    "Longitude": -73.7938571
  },
  {
    "Address": "20 Stew Leonard Drive",
    "City": "Yonkers",
    "State": "New York",
    "Zip Code": "10710-7202",
    "Latitude": 40.9749617,
    "Longitude": -73.8612905
  },
  {
    "Address": "2975 Richmond Avenue",
    "City": "Staten Island",
    "State": "New York",
    "Zip Code": "10314-5851",
    "Latitude": 40.57268,
    "Longitude": -74.168663
  },
  {
    "Address": "61-35 Junction Boulevard",
    "City": "Rego Park",
    "State": "New York",
    "Zip Code": "11374",
    "Latitude": 40.7333304,
    "Longitude": -73.8635717
  },
  {
    "Address": "1 Westchester Ave.",
    "City": "Port Chester",
    "State": "New York",
    "Zip Code": "10573",
    "Latitude": 40.997205,
    "Longitude": -73.661561
  },
  {
    "Address": "517 E 117th St",
    "City": "New York",
    "State": "New York",
    "Zip Code": "10035",
    "Latitude": 40.7953918,
    "Longitude": -73.9318516
  },
  {
    "Address": "5351 Gingerwood Dr",
    "City": "Wilmington",
    "State": "North Carolina",
    "Zip Code": "28405-3091",
    "Latitude": 34.2471728,
    "Longitude": -77.8738996
  },
  {
    "Address": "500 Tyvola Road",
    "City": "Charlotte",
    "State": "North Carolina",
    "Zip Code": "28217-3504",
    "Latitude": 35.162075,
    "Longitude": -80.883958
  },
  {
    "Address": "2125 Matthews Township Pkwy",
    "City": "Matthews",
    "State": "North Carolina",
    "Zip Code": "28105-5766",
    "Latitude": 35.130096,
    "Longitude": -80.704742
  },
  {
    "Address": "1510 North Pointe Drive",
    "City": "Durham",
    "State": "North Carolina",
    "Zip Code": "27705-3405",
    "Latitude": 36.028911,
    "Longitude": -78.914527
  },
  {
    "Address": "2838 Wake Forest Rd",
    "City": "Raleigh",
    "State": "North Carolina",
    "Zip Code": "27609-7840",
    "Latitude": 35.818255,
    "Longitude": -78.622315
  },
  {
    "Address": "4201 West Wendover Ave",
    "City": "Greensboro",
    "State": "North Carolina",
    "Zip Code": "27407-1908",
    "Latitude": 36.058064,
    "Longitude": -79.883838
  },
  {
    "Address": "1085 Hanes Mall Blvd.",
    "City": "Winston Salem",
    "State": "North Carolina",
    "Zip Code": "27103-1310",
    "Latitude": 36.064731,
    "Longitude": -80.317952
  },
  {
    "Address": "9691 Waterstone Blvd",
    "City": "Cincinnati",
    "State": "Ohio",
    "Zip Code": "45249-8220",
    "Latitude": 39.2956999,
    "Longitude": -84.3032
  },
  {
    "Address": "1100 East Kemper Road",
    "City": "Springdale",
    "State": "Ohio",
    "Zip Code": "45246-3321",
    "Latitude": 39.288172,
    "Longitude": -84.4510214
  },
  {
    "Address": "1409 Golden Gate Blvd.",
    "City": "Cleveland",
    "State": "Ohio",
    "Zip Code": "44124-1808",
    "Latitude": 41.5241698,
    "Longitude": -81.4467262
  },
  {
    "Address": "3405 West Central Ave",
    "City": "Toledo",
    "State": "Ohio",
    "Zip Code": "43606-1402",
    "Latitude": 41.6773358,
    "Longitude": -83.6241301
  },
  {
    "Address": "1500 Gemini Place",
    "City": "Columbus",
    "State": "Ohio",
    "Zip Code": "43240-7002",
    "Latitude": 40.150574,
    "Longitude": -82.976965
  },
  {
    "Address": "16690 Royalton Rd",
    "City": "Strongsville",
    "State": "Ohio",
    "Zip Code": "44136",
    "Latitude": 41.3130793,
    "Longitude": -81.8162777
  },
  {
    "Address": "35804 Detroit Road",
    "City": "Avon",
    "State": "Ohio",
    "Zip Code": "44011",
    "Latitude": 41.461881,
    "Longitude": -82.012682
  },
  {
    "Address": "2500 Northeast Highway 20",
    "City": "Bend",
    "State": "Oregon",
    "Zip Code": "97701-6277",
    "Latitude": 44.057267,
    "Longitude": -121.267616
  },
  {
    "Address": "3639 Crater Lake Highway",
    "City": "Medford",
    "State": "Oregon",
    "Zip Code": "97504-9259",
    "Latitude": 42.3687759,
    "Longitude": -122.858378
  },
  {
    "Address": "2828 Chad Drive",
    "City": "Eugene",
    "State": "Oregon",
    "Zip Code": "97408-7337",
    "Latitude": 44.089117,
    "Longitude": -123.06635
  },
  {
    "Address": "3130 Killdeer Ave",
    "City": "Albany",
    "State": "Oregon",
    "Zip Code": "97321-5325",
    "Latitude": 44.6391268,
    "Longitude": -123.065814
  },
  {
    "Address": "1010 Hawthorne Avenue SE",
    "City": "Salem",
    "State": "Oregon",
    "Zip Code": "97301-5090",
    "Latitude": 44.918976,
    "Longitude": -122.995309
  },
  {
    "Address": "4849 NE 138th Ave",
    "City": "Portland",
    "State": "Oregon",
    "Zip Code": "97230-3401",
    "Latitude": 45.559288,
    "Longitude": -122.523747
  },
  {
    "Address": "7855 SW Dartmouth Ave",
    "City": "Tigard",
    "State": "Oregon",
    "Zip Code": "97223-8401",
    "Latitude": 45.4367116,
    "Longitude": -122.7564796
  },
  {
    "Address": "1255 NE 48th Ave",
    "City": "Hillsboro",
    "State": "Oregon",
    "Zip Code": "97124-5008",
    "Latitude": 45.535709,
    "Longitude": -122.9355
  },
  {
    "Address": "25900 SW Heather Place",
    "City": "Wilsonville",
    "State": "Oregon",
    "Zip Code": "97070-5785",
    "Latitude": 45.332949,
    "Longitude": -122.764093
  },
  {
    "Address": "13130 SE 84th Avenue",
    "City": "Clackamas",
    "State": "Oregon",
    "Zip Code": "97015-9733",
    "Latitude": 45.429738,
    "Longitude": -122.571376
  },
  {
    "Address": "15901 SW Jenkins",
    "City": "Aloha",
    "State": "Oregon",
    "Zip Code": "97006-5098",
    "Latitude": 45.509085,
    "Longitude": -122.841919
  },
  {
    "Address": "4141 NE Stephens",
    "City": "Roseburg",
    "State": "Oregon",
    "Zip Code": "97470",
    "Latitude": 43.2590258,
    "Longitude": -123.3513746
  },
  {
    "Address": "1804 SE Ensign Lane",
    "City": "Warrenton",
    "State": "Oregon",
    "Zip Code": "97146",
    "Latitude": 46.1472442,
    "Longitude": -123.9174036
  },
  {
    "Address": "740 Upper State Road",
    "City": "North Wales",
    "State": "Pennsylvania",
    "Zip Code": "19454-1403",
    "Latitude": 40.2391985,
    "Longitude": -75.2351214
  },
  {
    "Address": "201 Allendale Road",
    "City": "King of Prussia",
    "State": "Pennsylvania",
    "Zip Code": "19406-1634",
    "Latitude": 40.091369,
    "Longitude": -75.385931
  },
  {
    "Address": "1875 Hempstead Road",
    "City": "Lancaster",
    "State": "Pennsylvania",
    "Zip Code": "17601-5671",
    "Latitude": 40.052357,
    "Longitude": -76.256924
  },
  {
    "Address": "5125 Jonestown Road Suite 221",
    "City": "Harrisburg",
    "State": "Pennsylvania",
    "Zip Code": "17112-2983",
    "Latitude": 40.3098913,
    "Longitude": -76.7996506
  },
  {
    "Address": "1050 Cranberry Square Drive",
    "City": "Cranberry Township",
    "State": "Pennsylvania",
    "Zip Code": "16066-6142",
    "Latitude": 40.691215,
    "Longitude": -80.107991
  },
  {
    "Address": "501 W Waterfront Dr",
    "City": "West Homestead",
    "State": "Pennsylvania",
    "Zip Code": "15120-5009",
    "Latitude": 40.4067922,
    "Longitude": -79.9195722
  },
  {
    "Address": "202 Costco Drive",
    "City": "Pittsburgh",
    "State": "Pennsylvania",
    "Zip Code": "15205",
    "Latitude": 40.4581284,
    "Longitude": -80.1671087
  },
  {
    "Address": "1021 Woodruff Rd",
    "City": "Greenville",
    "State": "South Carolina",
    "Zip Code": "29607-4108",
    "Latitude": 34.8360858,
    "Longitude": -82.311008
  },
  {
    "Address": "1021 Oak Forest Lane",
    "City": "Myrtle Beach",
    "State": "South Carolina",
    "Zip Code": "29577-9795",
    "Latitude": 33.705698,
    "Longitude": -78.915906
  },
  {
    "Address": "3050 Ashley Town Center",
    "City": "Charleston",
    "State": "South Carolina",
    "Zip Code": "29414-5664",
    "Latitude": 32.7953856,
    "Longitude": -80.0369654
  },
  {
    "Address": "211 W Blackstock Rd",
    "City": "Spartanburg",
    "State": "South Carolina",
    "Zip Code": "29301-1382",
    "Latitude": 34.9370256,
    "Longitude": -81.9906978
  },
  {
    "Address": "3775 Hacks Cross Road",
    "City": "Memphis",
    "State": "Tennessee",
    "Zip Code": "38125-2302",
    "Latitude": 35.0465639,
    "Longitude": -89.7972209
  },
  {
    "Address": "2431 North Germantown Parkway",
    "City": "Cordova",
    "State": "Tennessee",
    "Zip Code": "38016-4494",
    "Latitude": 35.19204,
    "Longitude": -89.794989
  },
  {
    "Address": "6670 Charlotte Pike",
    "City": "Nashville",
    "State": "Tennessee",
    "Zip Code": "37209-4202",
    "Latitude": 36.1392669,
    "Longitude": -86.885891
  },
  {
    "Address": "98 Seaboard Lane",
    "City": "Brentwood",
    "State": "Tennessee",
    "Zip Code": "37027-2930",
    "Latitude": 35.963436,
    "Longitude": -86.818149
  },
  {
    "Address": "10401 Research Blvd",
    "City": "Austin",
    "State": "Texas",
    "Zip Code": "78759-5712",
    "Latitude": 30.3968644,
    "Longitude": -97.7456423
  },
  {
    "Address": "5611 Utsa Blvd",
    "City": "San Antonio",
    "State": "Texas",
    "Zip Code": "78249-1619",
    "Latitude": 29.576287,
    "Longitude": -98.597156
  },
  {
    "Address": "15330 IH-35 North",
    "City": "Selma",
    "State": "Texas",
    "Zip Code": "78154-3814",
    "Latitude": 29.598391,
    "Longitude": -98.277915
  },
  {
    "Address": "12405 N. Gessner Rd.",
    "City": "Houston",
    "State": "Texas",
    "Zip Code": "77064-1170",
    "Latitude": 29.9536092,
    "Longitude": -95.5468109
  },
  {
    "Address": "1150 Bunker Hill Road",
    "City": "Houston",
    "State": "Texas",
    "Zip Code": "77055-6208",
    "Latitude": 29.787755,
    "Longitude": -95.529263
  },
  {
    "Address": "3836 Richmond Ave",
    "City": "Houston",
    "State": "Texas",
    "Zip Code": "77027-5802",
    "Latitude": 29.7327829,
    "Longitude": -95.4389565
  },
  {
    "Address": "5300 Overton Ridge Blvd",
    "City": "Fort Worth",
    "State": "Texas",
    "Zip Code": "76132-3301",
    "Latitude": 32.6775654,
    "Longitude": -97.4087829
  },
  {
    "Address": "2601 E. State Hwy 114",
    "City": "Southlake",
    "State": "Texas",
    "Zip Code": "76092-6668",
    "Latitude": 32.9419217,
    "Longitude": -97.1121332
  },
  {
    "Address": "600 West Arbrook Blvd",
    "City": "Arlington",
    "State": "Texas",
    "Zip Code": "76014-3702",
    "Latitude": 32.6846619,
    "Longitude": -97.1127486
  },
  {
    "Address": "1701 Dallas Pkwy",
    "City": "Plano",
    "State": "Texas",
    "Zip Code": "75093-4520",
    "Latitude": 33.023989,
    "Longitude": -96.831701
  },
  {
    "Address": "3800 N. Central Expressway",
    "City": "Plano",
    "State": "Texas",
    "Zip Code": "75074-2221",
    "Latitude": 33.0441379,
    "Longitude": -96.699179
  },
  {
    "Address": "851 S. State Hwy 121",
    "City": "Lewisville",
    "State": "Texas",
    "Zip Code": "75067-4158",
    "Latitude": 32.9952011,
    "Longitude": -96.9648545
  },
  {
    "Address": "6101 Gateway West Blvd",
    "City": "El Paso",
    "State": "Texas",
    "Zip Code": "79925",
    "Latitude": 31.783497,
    "Longitude": -106.410297
  },
  {
    "Address": "1201 N. Loop 1604 East",
    "City": "San Antonio",
    "State": "Texas",
    "Zip Code": "78232",
    "Latitude": 29.611904,
    "Longitude": -98.474805
  },
  {
    "Address": "250 West Highway 67",
    "City": "Duncanville",
    "State": "Texas",
    "Zip Code": "75137",
    "Latitude": 32.620946,
    "Longitude": -96.910279
  },
  {
    "Address": "1225 State Hwy 276",
    "City": "Rockwall",
    "State": "Texas",
    "Zip Code": "75032",
    "Latitude": 32.9087304,
    "Longitude": -96.4454985
  },
  {
    "Address": "835 North 3050 East",
    "City": "St. George",
    "State": "Utah",
    "Zip Code": "84790-9041",
    "Latitude": 37.122515,
    "Longitude": -113.523381
  },
  {
    "Address": "3656 Wall Avenue",
    "City": "Ogden",
    "State": "Utah",
    "Zip Code": "84405-7101",
    "Latitude": 41.197413,
    "Longitude": -111.9793725
  },
  {
    "Address": "3747 South 2700 West",
    "City": "West Valley",
    "State": "Utah",
    "Zip Code": "84119-4903",
    "Latitude": 40.6903769,
    "Longitude": -111.9541263
  },
  {
    "Address": "1818 South 300 West",
    "City": "Salt Lake City",
    "State": "Utah",
    "Zip Code": "84115-1805",
    "Latitude": 40.730657,
    "Longitude": -111.90294
  },
  {
    "Address": "648 East 800 South",
    "City": "Orem",
    "State": "Utah",
    "Zip Code": "84097-6528",
    "Latitude": 40.2822443,
    "Longitude": -111.6798494
  },
  {
    "Address": "11100 S. Auto Mall Drive",
    "City": "Sandy",
    "State": "Utah",
    "Zip Code": "84070-4171",
    "Latitude": 40.5506675,
    "Longitude": -111.8934445
  },
  {
    "Address": "198 North 1200 East",
    "City": "Lehi",
    "State": "Utah",
    "Zip Code": "84043-2294",
    "Latitude": 40.389719,
    "Longitude": -111.8229955
  },
  {
    "Address": "573 West 100 North",
    "City": "West Bountiful",
    "State": "Utah",
    "Zip Code": "84010-7018",
    "Latitude": 40.889379,
    "Longitude": -111.895108
  },
  {
    "Address": "5201 South Intermountain Drive",
    "City": "Murray",
    "State": "Utah",
    "Zip Code": "84107",
    "Latitude": 40.6577119,
    "Longitude": -111.889873
  },
  {
    "Address": "218 Lower Mountain View Drive",
    "City": "Colchester",
    "State": "Vermont",
    "Zip Code": "05446-5830",
    "Latitude": 44.5034,
    "Longitude": -73.173988
  },
  {
    "Address": "12121 Jefferson Avenue",
    "City": "Newport News",
    "State": "Virginia",
    "Zip Code": "23602-6916",
    "Latitude": 37.106044,
    "Longitude": -76.496559
  },
  {
    "Address": "850 Glenrock Road",
    "City": "Norfolk",
    "State": "Virginia",
    "Zip Code": "23502-3702",
    "Latitude": 36.851561,
    "Longitude": -76.199681
  },
  {
    "Address": "3700 Price Club Boulevard",
    "City": "Midlothian",
    "State": "Virginia",
    "Zip Code": "23112-3371",
    "Latitude": 37.438778,
    "Longitude": -77.587539
  },
  {
    "Address": "9650 West Broad Street",
    "City": "Glen Allen",
    "State": "Virginia",
    "Zip Code": "23060-4115",
    "Latitude": 37.642294,
    "Longitude": -77.561159
  },
  {
    "Address": "1830 Reservoir Street",
    "City": "Harrisonburg",
    "State": "Virginia",
    "Zip Code": "22801-8742",
    "Latitude": 38.428597,
    "Longitude": -78.85613
  },
  {
    "Address": "251 Front Royal Pike",
    "City": "Winchester",
    "State": "Virginia",
    "Zip Code": "22602-7319",
    "Latitude": 39.157827,
    "Longitude": -78.157929
  },
  {
    "Address": "1200 South Fern Street",
    "City": "Arlington",
    "State": "Virginia",
    "Zip Code": "22202-2862",
    "Latitude": 38.8624735,
    "Longitude": -77.0567423
  },
  {
    "Address": "2700 Potomac Mills Circle - Ste 200",
    "City": "Woodbridge",
    "State": "Virginia",
    "Zip Code": "22192-4653",
    "Latitude": 38.642245,
    "Longitude": -77.294447
  },
  {
    "Address": "7373 Boston Boulevard",
    "City": "Springfield",
    "State": "Virginia",
    "Zip Code": "22153-2805",
    "Latitude": 38.739883,
    "Longitude": -77.197301
  },
  {
    "Address": "4725 West Ox Road",
    "City": "Fairfax",
    "State": "Virginia",
    "Zip Code": "22030-6101",
    "Latitude": 38.849315,
    "Longitude": -77.371784
  },
  {
    "Address": "1300 Edwards Ferry Road",
    "City": "Leesburg",
    "State": "Virginia",
    "Zip Code": "20176-3355",
    "Latitude": 39.115223,
    "Longitude": -77.533198
  },
  {
    "Address": "21398 Price/Cascades Plaza",
    "City": "Sterling",
    "State": "Virginia",
    "Zip Code": "20164-6607",
    "Latitude": 39.023821,
    "Longitude": -77.401854
  },
  {
    "Address": "14390 Chantilly Crossing Lane",
    "City": "Chantilly",
    "State": "Virginia",
    "Zip Code": "20151-2117",
    "Latitude": 38.8951069,
    "Longitude": -77.4430209
  },
  {
    "Address": "10701 Sudley Manor Drive",
    "City": "Manassas",
    "State": "Virginia",
    "Zip Code": "20109-2845",
    "Latitude": 38.783572,
    "Longitude": -77.5164269
  },
  {
    "Address": "3102 Plank Road #600",
    "City": "Fredericksburg",
    "State": "Virginia",
    "Zip Code": "22407",
    "Latitude": 38.293479,
    "Longitude": -77.515701
  },
  {
    "Address": "8629 120th Avenue NE",
    "City": "Kirkland",
    "State": "Washington",
    "Zip Code": "98033-5865",
    "Latitude": 47.681717,
    "Longitude": -122.182086
  },
  {
    "Address": "301 Fifth Street",
    "City": "Clarkston",
    "State": "Washington",
    "Zip Code": "99403-1860",
    "Latitude": 46.4229672,
    "Longitude": -117.0442722
  },
  {
    "Address": "8505A W. Gage Blvd",
    "City": "Kennewick",
    "State": "Washington",
    "Zip Code": "99336-8120",
    "Latitude": 46.225654,
    "Longitude": -119.235246
  },
  {
    "Address": "5601 East Sprague Avenue",
    "City": "Spokane",
    "State": "Washington",
    "Zip Code": "99212-0826",
    "Latitude": 47.658358,
    "Longitude": -117.332852
  },
  {
    "Address": "7619 North Division Street",
    "City": "Spokane",
    "State": "Washington",
    "Zip Code": "99208-5613",
    "Latitude": 47.724927,
    "Longitude": -117.411489
  },
  {
    "Address": "2310 Longfibre Rd",
    "City": "Union Gap",
    "State": "Washington",
    "Zip Code": "98903-1513",
    "Latitude": 46.562354,
    "Longitude": -120.499306
  },
  {
    "Address": "375 Highline Drive South",
    "City": "East Wenatchee",
    "State": "Washington",
    "Zip Code": "98802-5344",
    "Latitude": 47.401812,
    "Longitude": -120.280459
  },
  {
    "Address": "6720 NE 84th Street",
    "City": "Vancouver",
    "State": "Washington",
    "Zip Code": "98665-2016",
    "Latitude": 45.684942,
    "Longitude": -122.604718
  },
  {
    "Address": "1470 Marvin Rd NE",
    "City": "Lacey",
    "State": "Washington",
    "Zip Code": "98516-3870",
    "Latitude": 47.05934,
    "Longitude": -122.760723
  },
  {
    "Address": "5500 Littlerock Road",
    "City": "Tumwater",
    "State": "Washington",
    "Zip Code": "98512-7363",
    "Latitude": 46.996336,
    "Longitude": -122.916699
  },
  {
    "Address": "3900 20th St. East",
    "City": "Fife",
    "State": "Washington",
    "Zip Code": "98424-1818",
    "Latitude": 47.238297,
    "Longitude": -122.373955
  },
  {
    "Address": "2219 South 37th Street",
    "City": "Tacoma",
    "State": "Washington",
    "Zip Code": "98409-7473",
    "Latitude": 47.224683,
    "Longitude": -122.469182
  },
  {
    "Address": "10000 Mickelberry Rd. NW",
    "City": "Silverdale",
    "State": "Washington",
    "Zip Code": "98383-8302",
    "Latitude": 47.656571,
    "Longitude": -122.680673
  },
  {
    "Address": "955 West Washington St",
    "City": "Sequim",
    "State": "Washington",
    "Zip Code": "98382-3266",
    "Latitude": 48.0770692,
    "Longitude": -123.1254206
  },
  {
    "Address": "955 West Washington St",
    "City": "Sequim",
    "State": "Washington",
    "Zip Code": "98382-3266",
    "Latitude": 48.0770692,
    "Longitude": -123.1254206
  },
  {
    "Address": "1201 39th SW",
    "City": "Puyallup",
    "State": "Washington",
    "Zip Code": "98373-3803",
    "Latitude": 47.156472,
    "Longitude": -122.308125
  },
  {
    "Address": "16616 Twin Lakes Ave",
    "City": "Marysville",
    "State": "Washington",
    "Zip Code": "98271-4701",
    "Latitude": 48.147561,
    "Longitude": -122.191237
  },
  {
    "Address": "1725 S. Burlington Blvd",
    "City": "Burlington",
    "State": "Washington",
    "Zip Code": "98233-3223",
    "Latitude": 48.453882,
    "Longitude": -122.338038
  },
  {
    "Address": "4299 Guide Meridian Street",
    "City": "Bellingham",
    "State": "Washington",
    "Zip Code": "98226-6475",
    "Latitude": 48.7974507,
    "Longitude": -122.4882889
  },
  {
    "Address": "10200 19th Avenue SE",
    "City": "Everett",
    "State": "Washington",
    "Zip Code": "98208-4256",
    "Latitude": 47.903556,
    "Longitude": -122.209275
  },
  {
    "Address": "400 Costco Drive Suite 150",
    "City": "Tukwila",
    "State": "Washington",
    "Zip Code": "98188-4808",
    "Latitude": 47.445595,
    "Longitude": -122.24834
  },
  {
    "Address": "4401 4th Avenue South",
    "City": "Seattle",
    "State": "Washington",
    "Zip Code": "98134-2389",
    "Latitude": 47.5649224,
    "Longitude": -122.3304533
  },
  {
    "Address": "1175 North 205th Street",
    "City": "Seattle",
    "State": "Washington",
    "Zip Code": "98133-3206",
    "Latitude": 47.77567,
    "Longitude": -122.344819
  },
  {
    "Address": "24008 Snohomish-Woodinville Rd SE",
    "City": "Woodinville",
    "State": "Washington",
    "Zip Code": "98072-9743",
    "Latitude": 47.779015,
    "Longitude": -122.1484548
  },
  {
    "Address": "19105 Highway 99",
    "City": "Lynnwood",
    "State": "Washington",
    "Zip Code": "98036-5228",
    "Latitude": 47.82549,
    "Longitude": -122.309915
  },
  {
    "Address": "1801 10th Avenue NW",
    "City": "Issaquah",
    "State": "Washington",
    "Zip Code": "98027-5384",
    "Latitude": 47.5512165,
    "Longitude": -122.0528913
  },
  {
    "Address": "35100 Enchanted Parkway South",
    "City": "Federal Way",
    "State": "Washington",
    "Zip Code": "98003-8314",
    "Latitude": 47.2869797,
    "Longitude": -122.3135201
  },
  {
    "Address": "19610 SE 1st St",
    "City": "Vancouver",
    "State": "Washington",
    "Zip Code": "98607",
    "Latitude": 45.6212994,
    "Longitude": -122.4591346
  },
  {
    "Address": "10990 Harbor Hill Dr",
    "City": "Gig Harbor",
    "State": "Washington",
    "Zip Code": "98335",
    "Latitude": 47.3577482,
    "Longitude": -122.6038876
  },
  {
    "Address": "27520 Covington Way SE",
    "City": "Covington",
    "State": "Washington",
    "Zip Code": "98042",
    "Latitude": 47.354838,
    "Longitude": -122.121185
  },
  {
    "Address": "2150 Deming Way",
    "City": "Middleton",
    "State": "Wisconsin",
    "Zip Code": "53562-5507",
    "Latitude": 43.100195,
    "Longitude": -89.522751
  },
  {
    "Address": "950 Port Washington Rd",
    "City": "Grafton",
    "State": "Wisconsin",
    "Zip Code": "53024-9201",
    "Latitude": 43.3246907,
    "Longitude": -87.9216153
  }
]