[
  {
    "latitude": 32.465298,
    "longitude": -86.473973,
    "name": "Autauga Metro Jail",
    "type": "Local",
    "county": "Autauga County",
    "state": "AL",
    "county_code": 1001,
    "geoid": 10010202002008,
    "population": 181,
    "num_new": 1,
    "num_old": 0
  },
  {
    "latitude": 30.88511,
    "longitude": -87.774451,
    "name": "Baldwin County Jail",
    "type": "Local",
    "county": "Baldwin County",
    "state": "AL",
    "county_code": 1003,
    "geoid": 10030105001039,
    "population": 486,
    "num_new": 2,
    "num_old": 1
  },
  {
    "latitude": 30.595724,
    "longitude": -87.892566,
    "name": "Daphne City Jail",
    "type": "Local",
    "county": "Baldwin County",
    "state": "AL",
    "county_code": 1003,
    "geoid": 10030108001027,
    "population": 38,
    "num_new": 3,
    "num_old": 2
  },
  {
    "latitude": 30.608661,
    "longitude": -87.778375,
    "name": "Loxley Community Work Center",
    "type": "State",
    "county": "Baldwin County",
    "state": "AL",
    "county_code": 1003,
    "geoid": 10030109033013,
    "population": 505,
    "num_new": 4,
    "num_old": 3
  },
  {
    "latitude": 30.524892,
    "longitude": -87.90248,
    "name": "Fairhope City Jail",
    "type": "Local",
    "county": "Baldwin County",
    "state": "AL",
    "county_code": 1003,
    "geoid": 10030112012050,
    "population": 17,
    "num_new": 5,
    "num_old": 4
  },
  {
    "latitude": 30.271754,
    "longitude": -87.690227,
    "name": "Orange Beach City Jail",
    "type": "Local",
    "county": "Baldwin County",
    "state": "AL",
    "county_code": 1003,
    "geoid": 10030114073034,
    "population": 4,
    "num_new": 6,
    "num_old": 5
  },
  {
    "latitude": 31.888535,
    "longitude": -85.494782,
    "name": "Ventress Correctional Facility",
    "type": "State",
    "county": "Barbour County",
    "state": "AL",
    "county_code": 1005,
    "geoid": 10059502002082,
    "population": 1626,
    "num_new": 7,
    "num_old": 6
  },
  {
    "latitude": 31.884053,
    "longitude": -85.483701,
    "name": "Barbour County Jail",
    "type": "Local",
    "county": "Barbour County",
    "state": "AL",
    "county_code": 1005,
    "geoid": 10059502002091,
    "population": 98,
    "num_new": 8,
    "num_old": 7
  },
  {
    "latitude": 31.675857,
    "longitude": -85.57815,
    "name": "Easterling Correctional Facility",
    "type": "State",
    "county": "Barbour County",
    "state": "AL",
    "county_code": 1005,
    "geoid": 10059504002044,
    "population": 1320,
    "num_new": 9,
    "num_old": 8
  },
  {
    "latitude": 32.925245,
    "longitude": -87.164289,
    "name": "Bibb Correctional Facility",
    "type": "State",
    "county": "Bibb County",
    "state": "AL",
    "county_code": 1007,
    "geoid": 10070100044013,
    "population": 2007,
    "num_new": 10,
    "num_old": 9
  },
  {
    "latitude": 33.932539,
    "longitude": -86.490029,
    "name": "Blount County Correctional Facility",
    "type": "Local",
    "county": "Blount County",
    "state": "AL",
    "county_code": 1009,
    "geoid": 10090501011039,
    "population": 129,
    "num_new": 11,
    "num_old": 10
  },
  {
    "latitude": 32.14952,
    "longitude": -85.682678,
    "name": "Bullock Correctional Facility",
    "type": "State",
    "county": "Bullock County",
    "state": "AL",
    "county_code": 1011,
    "geoid": 10119522001066,
    "population": 1495,
    "num_new": 12,
    "num_old": 11
  },
  {
    "latitude": 32.153323,
    "longitude": -85.721204,
    "name": "Bullock County Work Release Center",
    "type": "State",
    "county": "Bullock County",
    "state": "AL",
    "county_code": 1011,
    "geoid": 10119522003043,
    "population": 1,
    "num_new": 13,
    "num_old": 12
  },
  {
    "latitude": 32.145375,
    "longitude": -85.717086,
    "name": "Bullock County Jail",
    "type": "Local",
    "county": "Bullock County",
    "state": "AL",
    "county_code": 1011,
    "geoid": 10119522003076,
    "population": 32,
    "num_new": 14,
    "num_old": 13
  },
  {
    "latitude": 31.827604,
    "longitude": -86.617059,
    "name": "Butler County Jail",
    "type": "Local",
    "county": "Butler County",
    "state": "AL",
    "county_code": 1013,
    "geoid": 10139531001000,
    "population": 38,
    "num_new": 15,
    "num_old": 14
  },
  {
    "latitude": 33.652401,
    "longitude": -85.833592,
    "name": "Calhoun County Jail",
    "type": "Local",
    "county": "Calhoun County",
    "state": "AL",
    "county_code": 1015,
    "geoid": 10150006001058,
    "population": 409,
    "num_new": 16,
    "num_old": 15
  },
  {
    "latitude": 33.660384,
    "longitude": -85.832178,
    "name": "Anniston City Jail",
    "type": "Local",
    "county": "Calhoun County",
    "state": "AL",
    "county_code": 1015,
    "geoid": 10150008001014,
    "population": 50,
    "num_new": 17,
    "num_old": 16
  },
  {
    "latitude": 33.614625,
    "longitude": -85.833631,
    "name": "Oxford City Jail",
    "type": "Local",
    "county": "Calhoun County",
    "state": "AL",
    "county_code": 1015,
    "geoid": 10150012012050,
    "population": 8,
    "num_new": 18,
    "num_old": 17
  },
  {
    "latitude": 33.922876,
    "longitude": -85.612411,
    "name": "Piedmont City Jail",
    "type": "Local",
    "county": "Calhoun County",
    "state": "AL",
    "county_code": 1015,
    "geoid": 10150022003003,
    "population": 2,
    "num_new": 19,
    "num_old": 18
  },
  {
    "latitude": 32.899303,
    "longitude": -85.406837,
    "name": "Chambers County Detention Facility",
    "type": "Local",
    "county": "Chambers County",
    "state": "AL",
    "county_code": 1017,
    "geoid": 10179540004002,
    "population": 137,
    "num_new": 20,
    "num_old": 19
  },
  {
    "latitude": 34.153452,
    "longitude": -85.676614,
    "name": "Cherokee County Detention Center",
    "type": "Local",
    "county": "Cherokee County",
    "state": "AL",
    "county_code": 1019,
    "geoid": 10199560002036,
    "population": 80,
    "num_new": 21,
    "num_old": 20
  },
  {
    "latitude": 32.837951,
    "longitude": -86.622934,
    "name": "Chilton County Jail",
    "type": "Local",
    "county": "Chilton County",
    "state": "AL",
    "county_code": 1021,
    "geoid": 10210601014007,
    "population": 171,
    "num_new": 22,
    "num_old": 21
  },
  {
    "latitude": 32.293516,
    "longitude": -88.267811,
    "name": "Unlisted",
    "type": "Unlisted",
    "county": "Choctaw County",
    "state": "AL",
    "county_code": 1023,
    "geoid": 10239567002006,
    "population": 2,
    "num_new": 23,
    "num_old": 22
  },
  {
    "latitude": 32.088381,
    "longitude": -88.223068,
    "name": "Choctaw County Jail",
    "type": "Local",
    "county": "Choctaw County",
    "state": "AL",
    "county_code": 1023,
    "geoid": 10239568003028,
    "population": 34,
    "num_new": 24,
    "num_old": 23
  },
  {
    "latitude": 31.702653,
    "longitude": -87.780842,
    "name": "Clarke County Jail",
    "type": "Local",
    "county": "Clarke County",
    "state": "AL",
    "county_code": 1025,
    "geoid": 10259578006003,
    "population": 100,
    "num_new": 25,
    "num_old": 24
  },
  {
    "latitude": 33.269292,
    "longitude": -85.856843,
    "name": "Clay County Jail",
    "type": "Local",
    "county": "Clay County",
    "state": "AL",
    "county_code": 1027,
    "geoid": 10279590003007,
    "population": 76,
    "num_new": 26,
    "num_old": 25
  },
  {
    "latitude": 33.649724,
    "longitude": -85.588572,
    "name": "Cleburne County Jail",
    "type": "Local",
    "county": "Cleburne County",
    "state": "AL",
    "county_code": 1029,
    "geoid": 10299596003003,
    "population": 91,
    "num_new": 27,
    "num_old": 26
  },
  {
    "latitude": 31.414584,
    "longitude": -86.084336,
    "name": "Elba Work Release Center",
    "type": "State",
    "county": "Coffee County",
    "state": "AL",
    "county_code": 1031,
    "geoid": 10310105001002,
    "population": 241,
    "num_new": 28,
    "num_old": 27
  },
  {
    "latitude": 34.732877,
    "longitude": -87.704275,
    "name": "Colbert County Jail",
    "type": "Local",
    "county": "Colbert County",
    "state": "AL",
    "county_code": 1033,
    "geoid": 10330205003033,
    "population": 77,
    "num_new": 29,
    "num_old": 28
  },
  {
    "latitude": 31.436502,
    "longitude": -86.953061,
    "name": "Conecuh County jail",
    "type": "Local",
    "county": "Conecuh County",
    "state": "AL",
    "county_code": 1035,
    "geoid": 10359605002020,
    "population": 45,
    "num_new": 30,
    "num_old": 29
  },
  {
    "latitude": 32.889657,
    "longitude": -86.221034,
    "name": "Coosa County Jail",
    "type": "Local",
    "county": "Coosa County",
    "state": "AL",
    "county_code": 1037,
    "geoid": 10379612001019,
    "population": 80,
    "num_new": 31,
    "num_old": 30
  },
  {
    "latitude": 31.311029,
    "longitude": -86.503517,
    "name": "Covington County Jail",
    "type": "Local",
    "county": "Covington County",
    "state": "AL",
    "county_code": 1039,
    "geoid": 10399621002029,
    "population": 172,
    "num_new": 32,
    "num_old": 31
  },
  {
    "latitude": 34.226379,
    "longitude": -86.861693,
    "name": "Unlisted",
    "type": "Unlisted",
    "county": "Cullman County",
    "state": "AL",
    "county_code": 1043,
    "geoid": 10439649002022,
    "population": 59,
    "num_new": 33,
    "num_old": 32
  },
  {
    "latitude": 34.172523,
    "longitude": -86.841654,
    "name": "Cullman County Jail",
    "type": "Local",
    "county": "Cullman County",
    "state": "AL",
    "county_code": 1043,
    "geoid": 10439650003020,
    "population": 228,
    "num_new": 34,
    "num_old": 33
  },
  {
    "latitude": 34.058964,
    "longitude": -86.767428,
    "name": "Hanceville City Jail",
    "type": "Local",
    "county": "Cullman County",
    "state": "AL",
    "county_code": 1043,
    "geoid": 10439654022063,
    "population": 3,
    "num_new": 35,
    "num_old": 34
  },
  {
    "latitude": 31.449771,
    "longitude": -85.636159,
    "name": "Dale County Jail",
    "type": "Local",
    "county": "Dale County",
    "state": "AL",
    "county_code": 1045,
    "geoid": 10450207004001,
    "population": 63,
    "num_new": 36,
    "num_old": 35
  },
  {
    "latitude": 31.313338,
    "longitude": -85.719803,
    "name": "Unlisted",
    "type": "Unlisted",
    "county": "Dale County",
    "state": "AL",
    "county_code": 1045,
    "geoid": 10450211022010,
    "population": 9,
    "num_new": 37,
    "num_old": 36
  },
  {
    "latitude": 34.419056,
    "longitude": -85.771588,
    "name": "DeKalb County Jail",
    "type": "Local",
    "county": "DeKalb County",
    "state": "AL",
    "county_code": 1049,
    "geoid": 10499609003022,
    "population": 198,
    "num_new": 38,
    "num_old": 37
  },
  {
    "latitude": 34.44012,
    "longitude": -85.724121,
    "name": "Fort Payne City Jail",
    "type": "Local",
    "county": "DeKalb County",
    "state": "AL",
    "county_code": 1049,
    "geoid": 10499611001081,
    "population": 2,
    "num_new": 39,
    "num_old": 38
  },
  {
    "latitude": 34.570101,
    "longitude": -85.571873,
    "name": "Unlisted",
    "type": "Unlisted",
    "county": "DeKalb County",
    "state": "AL",
    "county_code": 1049,
    "geoid": 10499614001064,
    "population": 4,
    "num_new": 40,
    "num_old": 39
  },
  {
    "latitude": 32.589624,
    "longitude": -86.33265,
    "name": "Draper / Staton / Elmore prisons",
    "type": "State",
    "county": "Elmore County",
    "state": "AL",
    "county_code": 1051,
    "geoid": 10510301004084,
    "population": 1376,
    "num_new": 41,
    "num_old": 40
  },
  {
    "latitude": 32.57294,
    "longitude": -86.327885,
    "name": "Draper / Staton / Elmore prisons",
    "type": "State",
    "county": "Elmore County",
    "state": "AL",
    "county_code": 1051,
    "geoid": 10510301004090,
    "population": 2399,
    "num_new": 42,
    "num_old": 41
  },
  {
    "latitude": 32.565857,
    "longitude": -86.193812,
    "name": "Tutwiler Prison for Women",
    "type": "State",
    "county": "Elmore County",
    "state": "AL",
    "county_code": 1051,
    "geoid": 10510306001015,
    "population": 711,
    "num_new": 43,
    "num_old": 42
  },
  {
    "latitude": 32.559915,
    "longitude": -86.195823,
    "name": "Elmore County Jail",
    "type": "Local",
    "county": "Elmore County",
    "state": "AL",
    "county_code": 1051,
    "geoid": 10510306002079,
    "population": 240,
    "num_new": 44,
    "num_old": 43
  },
  {
    "latitude": 32.580897,
    "longitude": -86.393536,
    "name": "Frank Lee Youth Center",
    "type": "State",
    "county": "Elmore County",
    "state": "AL",
    "county_code": 1051,
    "geoid": 10510309011013,
    "population": 299,
    "num_new": 45,
    "num_old": 44
  },
  {
    "latitude": 31.107702,
    "longitude": -87.072437,
    "name": "Escambia County Detention Center",
    "type": "Local",
    "county": "Escambia County",
    "state": "AL",
    "county_code": 1053,
    "geoid": 10539702002036,
    "population": 163,
    "num_new": 46,
    "num_old": 45
  },
  {
    "latitude": 31.167081,
    "longitude": -87.466881,
    "name": "G.K. Fountain Corr Facility/ J.O. Davis Corr F",
    "type": "State",
    "county": "Escambia County",
    "state": "AL",
    "county_code": 1053,
    "geoid": 10539704002037,
    "population": 1890,
    "num_new": 47,
    "num_old": 46
  },
  {
    "latitude": 31.133766,
    "longitude": -87.442621,
    "name": "Holman Prison",
    "type": "State",
    "county": "Escambia County",
    "state": "AL",
    "county_code": 1053,
    "geoid": 10539704002044,
    "population": 998,
    "num_new": 48,
    "num_old": 47
  },
  {
    "latitude": 34.016408,
    "longitude": -86.012089,
    "name": "Etowah County Detention Center",
    "type": "Local",
    "county": "Etowah County",
    "state": "AL",
    "county_code": 1055,
    "geoid": 10550012001012,
    "population": 784,
    "num_new": 49,
    "num_old": 48
  },
  {
    "latitude": 33.685299,
    "longitude": -87.832298,
    "name": "Unlisted",
    "type": "Unlisted",
    "county": "Fayette County",
    "state": "AL",
    "county_code": 1057,
    "geoid": 10570202004031,
    "population": 10,
    "num_new": 50,
    "num_old": 49
  },
  {
    "latitude": 33.684375,
    "longitude": -87.830503,
    "name": "Fayette County Jail",
    "type": "Local",
    "county": "Fayette County",
    "state": "AL",
    "county_code": 1057,
    "geoid": 10570203001064,
    "population": 52,
    "num_new": 51,
    "num_old": 50
  },
  {
    "latitude": 34.507891,
    "longitude": -87.728151,
    "name": "Unlisted",
    "type": "Unlisted",
    "county": "Franklin County",
    "state": "AL",
    "county_code": 1059,
    "geoid": 10599730003020,
    "population": 10,
    "num_new": 52,
    "num_old": 51
  },
  {
    "latitude": 34.472579,
    "longitude": -87.72879,
    "name": "Franklin County Jail",
    "type": "Local",
    "county": "Franklin County",
    "state": "AL",
    "county_code": 1059,
    "geoid": 10599733002027,
    "population": 78,
    "num_new": 53,
    "num_old": 52
  },
  {
    "latitude": 31.038819,
    "longitude": -85.865465,
    "name": "Geneva County Jail",
    "type": "Local",
    "county": "Geneva County",
    "state": "AL",
    "county_code": 1061,
    "geoid": 10610503003016,
    "population": 53,
    "num_new": 54,
    "num_old": 53
  },
  {
    "latitude": 32.717298,
    "longitude": -87.620471,
    "name": "Hale County Jail",
    "type": "Local",
    "county": "Hale County",
    "state": "AL",
    "county_code": 1065,
    "geoid": 10650404001002,
    "population": 64,
    "num_new": 55,
    "num_old": 54
  },
  {
    "latitude": 32.629304,
    "longitude": -87.693777,
    "name": "Farquhar State Cattle Ranch",
    "type": "State",
    "county": "Hale County",
    "state": "AL",
    "county_code": 1065,
    "geoid": 10650404005050,
    "population": 103,
    "num_new": 56,
    "num_old": 55
  },
  {
    "latitude": 31.57014,
    "longitude": -85.248754,
    "name": "Henry County Jail",
    "type": "Local",
    "county": "Henry County",
    "state": "AL",
    "county_code": 1067,
    "geoid": 10670302001069,
    "population": 55,
    "num_new": 57,
    "num_old": 56
  },
  {
    "latitude": 31.225844,
    "longitude": -85.390564,
    "name": "Dothan City Jail",
    "type": "Local",
    "county": "Houston County",
    "state": "AL",
    "county_code": 1069,
    "geoid": 10690406001029,
    "population": 91,
    "num_new": 58,
    "num_old": 57
  },
  {
    "latitude": 31.224424,
    "longitude": -85.39283,
    "name": "Houston County Jail",
    "type": "Local",
    "county": "Houston County",
    "state": "AL",
    "county_code": 1069,
    "geoid": 10690406001035,
    "population": 114,
    "num_new": 59,
    "num_old": 58
  },
  {
    "latitude": 31.224118,
    "longitude": -85.378602,
    "name": "Houston County Jail",
    "type": "Local",
    "county": "Houston County",
    "state": "AL",
    "county_code": 1069,
    "geoid": 10690414002049,
    "population": 348,
    "num_new": 60,
    "num_old": 59
  },
  {
    "latitude": 34.665321,
    "longitude": -86.045452,
    "name": "Jackson County Jail",
    "type": "Local",
    "county": "Jackson County",
    "state": "AL",
    "county_code": 1071,
    "geoid": 10719508004015,
    "population": 130,
    "num_new": 61,
    "num_old": 60
  },
  {
    "latitude": 34.662273,
    "longitude": -86.0359,
    "name": "Scottsboro City Jail",
    "type": "Local",
    "county": "Jackson County",
    "state": "AL",
    "county_code": 1071,
    "geoid": 10719508004064,
    "population": 20,
    "num_new": 62,
    "num_old": 61
  },
  {
    "latitude": 33.53123,
    "longitude": -86.808394,
    "name": "Birmingham Work Release Center",
    "type": "State",
    "county": "Jefferson County",
    "state": "AL",
    "county_code": 1073,
    "geoid": 10730016001028,
    "population": 280,
    "num_new": 63,
    "num_old": 62
  },
  {
    "latitude": 33.523083,
    "longitude": -86.808764,
    "name": "Jefferson County Sheriff's Office",
    "type": "Local",
    "county": "Jefferson County",
    "state": "AL",
    "county_code": 1073,
    "geoid": 10730027001062,
    "population": 905,
    "num_new": 64,
    "num_old": 63
  },
  {
    "latitude": 33.496171,
    "longitude": -86.821017,
    "name": "Birmingham City Jail",
    "type": "Local",
    "county": "Jefferson County",
    "state": "AL",
    "county_code": 1073,
    "geoid": 10730042003001,
    "population": 155,
    "num_new": 65,
    "num_old": 64
  },
  {
    "latitude": 33.444068,
    "longitude": -86.9934,
    "name": "Hueytown City Jail",
    "type": "Local",
    "county": "Jefferson County",
    "state": "AL",
    "county_code": 1073,
    "geoid": 10730100012028,
    "population": 28,
    "num_new": 66,
    "num_old": 65
  },
  {
    "latitude": 33.397331,
    "longitude": -86.954176,
    "name": "Bessemer City Jail",
    "type": "Local",
    "county": "Jefferson County",
    "state": "AL",
    "county_code": 1073,
    "geoid": 10730102002154,
    "population": 47,
    "num_new": 67,
    "num_old": 66
  },
  {
    "latitude": 33.484774,
    "longitude": -86.915002,
    "name": "Fairfield City Jail",
    "type": "Local",
    "county": "Jefferson County",
    "state": "AL",
    "county_code": 1073,
    "geoid": 10730106024021,
    "population": 5,
    "num_new": 68,
    "num_old": 67
  },
  {
    "latitude": 33.479343,
    "longitude": -86.790694,
    "name": "Homewood City Jail",
    "type": "Local",
    "county": "Jefferson County",
    "state": "AL",
    "county_code": 1073,
    "geoid": 10730107021072,
    "population": 18,
    "num_new": 69,
    "num_old": 68
  },
  {
    "latitude": 33.501572,
    "longitude": -86.75609,
    "name": "Mountain Brook City Jail",
    "type": "Local",
    "county": "Jefferson County",
    "state": "AL",
    "county_code": 1073,
    "geoid": 10730108012047,
    "population": 1,
    "num_new": 70,
    "num_old": 69
  },
  {
    "latitude": 33.6215,
    "longitude": -86.600549,
    "name": "Trussville City Jail",
    "type": "Local",
    "county": "Jefferson County",
    "state": "AL",
    "county_code": 1073,
    "geoid": 10730111092024,
    "population": 22,
    "num_new": 71,
    "num_old": 70
  },
  {
    "latitude": 33.814576,
    "longitude": -86.80841,
    "name": "Unlisted",
    "type": "Unlisted",
    "county": "Jefferson County",
    "state": "AL",
    "county_code": 1073,
    "geoid": 10730114002018,
    "population": 4,
    "num_new": 72,
    "num_old": 71
  },
  {
    "latitude": 33.601097,
    "longitude": -86.954786,
    "name": "Adamsville City Jail",
    "type": "Local",
    "county": "Jefferson County",
    "state": "AL",
    "county_code": 1073,
    "geoid": 10730121043012,
    "population": 7,
    "num_new": 73,
    "num_old": 72
  },
  {
    "latitude": 33.508961,
    "longitude": -87.176386,
    "name": "Donaldson Correctional Facility",
    "type": "State",
    "county": "Jefferson County",
    "state": "AL",
    "county_code": 1073,
    "geoid": 10730122002062,
    "population": 1534,
    "num_new": 74,
    "num_old": 73
  },
  {
    "latitude": 33.490187,
    "longitude": -86.972715,
    "name": "Pleasant Grove City Jail",
    "type": "Local",
    "county": "Jefferson County",
    "state": "AL",
    "county_code": 1073,
    "geoid": 10730123053017,
    "population": 2,
    "num_new": 75,
    "num_old": 74
  },
  {
    "latitude": 33.719776,
    "longitude": -88.11024,
    "name": "Lamar County Jail",
    "type": "Local",
    "county": "Lamar County",
    "state": "AL",
    "county_code": 1075,
    "geoid": 10750301004040,
    "population": 52,
    "num_new": 76,
    "num_old": 75
  },
  {
    "latitude": 34.794751,
    "longitude": -87.66949,
    "name": "Lauderdale County Jail",
    "type": "Local",
    "county": "Lauderdale County",
    "state": "AL",
    "county_code": 1077,
    "geoid": 10770101001084,
    "population": 144,
    "num_new": 77,
    "num_old": 76
  },
  {
    "latitude": 34.507388,
    "longitude": -87.281139,
    "name": "Lawrence County Jail",
    "type": "Local",
    "county": "Lawrence County",
    "state": "AL",
    "county_code": 1079,
    "geoid": 10799794001001,
    "population": 108,
    "num_new": 78,
    "num_old": 77
  },
  {
    "latitude": 32.627752,
    "longitude": -85.399643,
    "name": "Lee County Detention Center",
    "type": "Local",
    "county": "Lee County",
    "state": "AL",
    "county_code": 1081,
    "geoid": 10810411004000,
    "population": 331,
    "num_new": 79,
    "num_old": 78
  },
  {
    "latitude": 34.814631,
    "longitude": -86.970232,
    "name": "Limestone County Jail",
    "type": "Local",
    "county": "Limestone County",
    "state": "AL",
    "county_code": 1083,
    "geoid": 10830206001053,
    "population": 234,
    "num_new": 80,
    "num_old": 79
  },
  {
    "latitude": 34.811886,
    "longitude": -86.803207,
    "name": "Limestone Correctional Facility",
    "type": "State",
    "county": "Limestone County",
    "state": "AL",
    "county_code": 1083,
    "geoid": 10830208013001,
    "population": 2342,
    "num_new": 81,
    "num_old": 80
  },
  {
    "latitude": 32.175033,
    "longitude": -86.592569,
    "name": "Lowdnes County Jail",
    "type": "Local",
    "county": "Lowndes County",
    "state": "AL",
    "county_code": 1085,
    "geoid": 10857808002036,
    "population": 34,
    "num_new": 82,
    "num_old": 81
  },
  {
    "latitude": 32.362605,
    "longitude": -85.626198,
    "name": "Macon County Law Enforcement Center",
    "type": "Local",
    "county": "Macon County",
    "state": "AL",
    "county_code": 1087,
    "geoid": 10872323001029,
    "population": 51,
    "num_new": 83,
    "num_old": 82
  },
  {
    "latitude": 34.73025,
    "longitude": -86.585073,
    "name": "Madison County Courthouse Detention Facility",
    "type": "Local",
    "county": "Madison County",
    "state": "AL",
    "county_code": 1089,
    "geoid": 10890031001052,
    "population": 154,
    "num_new": 84,
    "num_old": 83
  },
  {
    "latitude": 34.73761,
    "longitude": -86.597056,
    "name": "Madison County Main Detention Facility",
    "type": "Local",
    "county": "Madison County",
    "state": "AL",
    "county_code": 1089,
    "geoid": 10890031002025,
    "population": 858,
    "num_new": 85,
    "num_old": 84
  },
  {
    "latitude": 32.30759,
    "longitude": -87.797165,
    "name": "Marengo County Detention Center",
    "type": "Local",
    "county": "Marengo County",
    "state": "AL",
    "county_code": 1091,
    "geoid": 10919730006030,
    "population": 69,
    "num_new": 86,
    "num_old": 85
  },
  {
    "latitude": 34.138896,
    "longitude": -87.956746,
    "name": "Hamilton Work Release Center",
    "type": "State",
    "county": "Marion County",
    "state": "AL",
    "county_code": 1093,
    "geoid": 10939644001025,
    "population": 264,
    "num_new": 87,
    "num_old": 86
  },
  {
    "latitude": 34.121425,
    "longitude": -87.992248,
    "name": "Hamilton Aged and Infirmed Center",
    "type": "State",
    "county": "Marion County",
    "state": "AL",
    "county_code": 1093,
    "geoid": 10939644003051,
    "population": 293,
    "num_new": 88,
    "num_old": 87
  },
  {
    "latitude": 34.328931,
    "longitude": -86.496504,
    "name": "Arab City Jail",
    "type": "Local",
    "county": "Marshall County",
    "state": "AL",
    "county_code": 1095,
    "geoid": 10950304015038,
    "population": 14,
    "num_new": 89,
    "num_old": 88
  },
  {
    "latitude": 34.35332,
    "longitude": -86.293839,
    "name": "Marshall County Jail",
    "type": "Local",
    "county": "Marshall County",
    "state": "AL",
    "county_code": 1095,
    "geoid": 10950307021007,
    "population": 200,
    "num_new": 90,
    "num_old": 89
  },
  {
    "latitude": 34.360559,
    "longitude": -86.292233,
    "name": "Unlisted",
    "type": "Unlisted",
    "county": "Marshall County",
    "state": "AL",
    "county_code": 1095,
    "geoid": 10950307021021,
    "population": 14,
    "num_new": 91,
    "num_old": 90
  },
  {
    "latitude": 34.268015,
    "longitude": -86.210765,
    "name": "Unlisted",
    "type": "Unlisted",
    "county": "Marshall County",
    "state": "AL",
    "county_code": 1095,
    "geoid": 10950309032037,
    "population": 64,
    "num_new": 92,
    "num_old": 91
  },
  {
    "latitude": 34.266855,
    "longitude": -86.210007,
    "name": "Albertville City Jail",
    "type": "Local",
    "county": "Marshall County",
    "state": "AL",
    "county_code": 1095,
    "geoid": 10950309032052,
    "population": 30,
    "num_new": 93,
    "num_old": 92
  },
  {
    "latitude": 34.195936,
    "longitude": -86.164826,
    "name": "Boaz City Jail",
    "type": "Local",
    "county": "Marshall County",
    "state": "AL",
    "county_code": 1095,
    "geoid": 10950311004020,
    "population": 13,
    "num_new": 94,
    "num_old": 93
  },
  {
    "latitude": 30.681154,
    "longitude": -88.041877,
    "name": "Mobile County Jail",
    "type": "Local",
    "county": "Mobile County",
    "state": "AL",
    "county_code": 1097,
    "geoid": 10970012001441,
    "population": 988,
    "num_new": 95,
    "num_old": 94
  },
  {
    "latitude": 30.680077,
    "longitude": -88.040802,
    "name": "Mobile County Jail",
    "type": "Local",
    "county": "Mobile County",
    "state": "AL",
    "county_code": 1097,
    "geoid": 10970012001451,
    "population": 327,
    "num_new": 96,
    "num_old": 95
  },
  {
    "latitude": 30.766916,
    "longitude": -88.074276,
    "name": "Chickasaw City Jail",
    "type": "Local",
    "county": "Mobile County",
    "state": "AL",
    "county_code": 1097,
    "geoid": 10970052001012,
    "population": 5,
    "num_new": 97,
    "num_old": 96
  },
  {
    "latitude": 30.805661,
    "longitude": -88.071506,
    "name": "Saraland City Jail",
    "type": "Local",
    "county": "Mobile County",
    "state": "AL",
    "county_code": 1097,
    "geoid": 10970054001040,
    "population": 8,
    "num_new": 98,
    "num_old": 97
  },
  {
    "latitude": 31.524085,
    "longitude": -87.319457,
    "name": "Monroe County Jail",
    "type": "Local",
    "county": "Monroe County",
    "state": "AL",
    "county_code": 1099,
    "geoid": 10990760003037,
    "population": 55,
    "num_new": 99,
    "num_old": 98
  },
  {
    "latitude": 32.381781,
    "longitude": -86.297662,
    "name": "Montgomery Municipal Jail",
    "type": "Local",
    "county": "Montgomery County",
    "state": "AL",
    "county_code": 1101,
    "geoid": 11010001001017,
    "population": 325,
    "num_new": 100,
    "num_old": 99
  },
  {
    "latitude": 32.374609,
    "longitude": -86.305433,
    "name": "Montgomery County Detention Facility",
    "type": "Local",
    "county": "Montgomery County",
    "state": "AL",
    "county_code": 1101,
    "geoid": 11010002001021,
    "population": 509,
    "num_new": 101,
    "num_old": 100
  },
  {
    "latitude": 32.392595,
    "longitude": -86.369111,
    "name": "Montgomery Federal Prison Camp",
    "type": "Federal",
    "county": "Montgomery County",
    "state": "AL",
    "county_code": 1101,
    "geoid": 11010009001000,
    "population": 914,
    "num_new": 102,
    "num_old": 101
  },
  {
    "latitude": 32.462737,
    "longitude": -86.22381,
    "name": "Red Eagle Honor Farm",
    "type": "State",
    "county": "Montgomery County",
    "state": "AL",
    "county_code": 1101,
    "geoid": 11010051011010,
    "population": 324,
    "num_new": 103,
    "num_old": 102
  },
  {
    "latitude": 32.386728,
    "longitude": -86.099145,
    "name": "Kilby Correctional Facility and Montgomery Work Release Center",
    "type": "State",
    "county": "Montgomery County",
    "state": "AL",
    "county_code": 1101,
    "geoid": 11010055012026,
    "population": 1680,
    "num_new": 104,
    "num_old": 103
  },
  {
    "latitude": 34.605774,
    "longitude": -86.987306,
    "name": "Morgan County Jail and Annex",
    "type": "Local",
    "county": "Morgan County",
    "state": "AL",
    "county_code": 1103,
    "geoid": 11030004001006,
    "population": 364,
    "num_new": 105,
    "num_old": 104
  },
  {
    "latitude": 34.606338,
    "longitude": -86.983541,
    "name": "Decatur City jail",
    "type": "Local",
    "county": "Morgan County",
    "state": "AL",
    "county_code": 1103,
    "geoid": 11030004004074,
    "population": 129,
    "num_new": 106,
    "num_old": 105
  },
  {
    "latitude": 34.617233,
    "longitude": -87.004543,
    "name": "Decatur Work Release",
    "type": "State",
    "county": "Morgan County",
    "state": "AL",
    "county_code": 1103,
    "geoid": 11030006001101,
    "population": 712,
    "num_new": 107,
    "num_old": 106
  },
  {
    "latitude": 32.634744,
    "longitude": -87.317195,
    "name": "Perry County Jail",
    "type": "Local",
    "county": "Perry County",
    "state": "AL",
    "county_code": 1105,
    "geoid": 11056870001043,
    "population": 17,
    "num_new": 108,
    "num_old": 107
  },
  {
    "latitude": 33.261138,
    "longitude": -88.097275,
    "name": "Pickens County Jail",
    "type": "Local",
    "county": "Pickens County",
    "state": "AL",
    "county_code": 1107,
    "geoid": 11070503002035,
    "population": 170,
    "num_new": 109,
    "num_old": 108
  },
  {
    "latitude": 31.808195,
    "longitude": -85.969743,
    "name": "Troy City Jail",
    "type": "Local",
    "county": "Pike County",
    "state": "AL",
    "county_code": 1109,
    "geoid": 11091889003035,
    "population": 2,
    "num_new": 110,
    "num_old": 109
  },
  {
    "latitude": 33.309332,
    "longitude": -85.482947,
    "name": "Randolph County Jail",
    "type": "Local",
    "county": "Randolph County",
    "state": "AL",
    "county_code": 1111,
    "geoid": 11110003002011,
    "population": 48,
    "num_new": 111,
    "num_old": 110
  },
  {
    "latitude": 32.4398,
    "longitude": -85.017678,
    "name": "Russell County Jail",
    "type": "Local",
    "county": "Russell County",
    "state": "AL",
    "county_code": 1113,
    "geoid": 11130306002005,
    "population": 291,
    "num_new": 112,
    "num_old": 111
  },
  {
    "latitude": 33.587163,
    "longitude": -86.286988,
    "name": "St. Clair County",
    "type": "Local",
    "county": "St. Clair County",
    "state": "AL",
    "county_code": 1115,
    "geoid": 11150402032005,
    "population": 126,
    "num_new": 113,
    "num_old": 112
  },
  {
    "latitude": 33.836178,
    "longitude": -86.254335,
    "name": "St. Clair County Jail",
    "type": "Local",
    "county": "St. Clair County",
    "state": "AL",
    "county_code": 1115,
    "geoid": 11150404012011,
    "population": 85,
    "num_new": 114,
    "num_old": 113
  },
  {
    "latitude": 33.752715,
    "longitude": -86.375762,
    "name": "St. Clair Correctional Facility",
    "type": "State",
    "county": "St. Clair County",
    "state": "AL",
    "county_code": 1115,
    "geoid": 11150405023009,
    "population": 1423,
    "num_new": 115,
    "num_old": 114
  },
  {
    "latitude": 33.347678,
    "longitude": -86.793222,
    "name": "Unlisted",
    "type": "Unlisted",
    "county": "Shelby County",
    "state": "AL",
    "county_code": 1117,
    "geoid": 11170303142041,
    "population": 32,
    "num_new": 116,
    "num_old": 115
  },
  {
    "latitude": 33.290749,
    "longitude": -86.812883,
    "name": "Unlisted",
    "type": "Unlisted",
    "county": "Shelby County",
    "state": "AL",
    "county_code": 1117,
    "geoid": 11170303152032,
    "population": 2,
    "num_new": 117,
    "num_old": 116
  },
  {
    "latitude": 33.246389,
    "longitude": -86.816083,
    "name": "Alabaster City Jail",
    "type": "Local",
    "county": "Shelby County",
    "state": "AL",
    "county_code": 1117,
    "geoid": 11170303192002,
    "population": 4,
    "num_new": 118,
    "num_old": 117
  },
  {
    "latitude": 33.184785,
    "longitude": -86.625931,
    "name": "Shelby County Jail",
    "type": "Other",
    "county": "Shelby County",
    "state": "AL",
    "county_code": 1117,
    "geoid": 11170307011110,
    "population": 843,
    "num_new": 119,
    "num_old": 118
  },
  {
    "latitude": 33.419599,
    "longitude": -86.176307,
    "name": "Talladega Camp",
    "type": "Federal",
    "county": "Talladega County",
    "state": "AL",
    "county_code": 1121,
    "geoid": 11210103012068,
    "population": 357,
    "num_new": 120,
    "num_old": 119
  },
  {
    "latitude": 33.42991,
    "longitude": -86.139606,
    "name": "Talladega County Jail",
    "type": "Local",
    "county": "Talladega County",
    "state": "AL",
    "county_code": 1121,
    "geoid": 11210107001029,
    "population": 229,
    "num_new": 121,
    "num_old": 120
  },
  {
    "latitude": 33.420584,
    "longitude": -86.146445,
    "name": "Talladega FCI",
    "type": "Federal",
    "county": "Talladega County",
    "state": "AL",
    "county_code": 1121,
    "geoid": 11210107001034,
    "population": 857,
    "num_new": 122,
    "num_old": 121
  },
  {
    "latitude": 33.364952,
    "longitude": -86.329689,
    "name": "Childersburg Work Release Center",
    "type": "State",
    "county": "Talladega County",
    "state": "AL",
    "county_code": 1121,
    "geoid": 11210112001153,
    "population": 546,
    "num_new": 123,
    "num_old": 122
  },
  {
    "latitude": 32.81435,
    "longitude": -85.76859,
    "name": "Tallapoosa County Jail",
    "type": "Local",
    "county": "Tallapoosa County",
    "state": "AL",
    "county_code": 1123,
    "geoid": 11239624003033,
    "population": 137,
    "num_new": 124,
    "num_old": 123
  },
  {
    "latitude": 33.198246,
    "longitude": -87.567209,
    "name": "Tuscaloosa County Jail",
    "type": "Local",
    "county": "Tuscaloosa County",
    "state": "AL",
    "county_code": 1125,
    "geoid": 11250116001154,
    "population": 615,
    "num_new": 125,
    "num_old": 124
  },
  {
    "latitude": 33.831802,
    "longitude": -87.276466,
    "name": "Walker County Jail",
    "type": "Local",
    "county": "Walker County",
    "state": "AL",
    "county_code": 1127,
    "geoid": 11270202002083,
    "population": 245,
    "num_new": 126,
    "num_old": 125
  },
  {
    "latitude": 33.832993,
    "longitude": -87.270858,
    "name": "Unlisted",
    "type": "Local",
    "county": "Walker County",
    "state": "AL",
    "county_code": 1127,
    "geoid": 11270203004034,
    "population": 22,
    "num_new": 127,
    "num_old": 126
  },
  {
    "latitude": 33.835609,
    "longitude": -87.275273,
    "name": "Jasper Police Department",
    "type": "Local",
    "county": "Walker County",
    "state": "AL",
    "county_code": 1127,
    "geoid": 11270203004042,
    "population": 40,
    "num_new": 128,
    "num_old": 127
  },
  {
    "latitude": 33.749139,
    "longitude": -87.046978,
    "name": "Sumiton City Jail",
    "type": "Local",
    "county": "Walker County",
    "state": "AL",
    "county_code": 1127,
    "geoid": 11270218002028,
    "population": 2,
    "num_new": 129,
    "num_old": 128
  },
  {
    "latitude": 31.465614,
    "longitude": -88.256741,
    "name": "Washington County Jail",
    "type": "Local",
    "county": "Washington County",
    "state": "AL",
    "county_code": 1129,
    "geoid": 11290440004054,
    "population": 67,
    "num_new": 130,
    "num_old": 129
  },
  {
    "latitude": 31.943382,
    "longitude": -87.226754,
    "name": "Unlisted",
    "type": "Unlisted",
    "county": "Wilcox County",
    "state": "AL",
    "county_code": 1131,
    "geoid": 11310352002000,
    "population": 38,
    "num_new": 131,
    "num_old": 130
  },
  {
    "latitude": 34.146663,
    "longitude": -87.402019,
    "name": "Winston County Jail",
    "type": "Local",
    "county": "Winston County",
    "state": "AL",
    "county_code": 1133,
    "geoid": 11339656004039,
    "population": 56,
    "num_new": 132,
    "num_old": 131
  },
  {
    "latitude": 53.892794,
    "longitude": -166.53362,
    "name": "Unalaska City Jail",
    "type": "Local",
    "county": "Aleutians West Census Area",
    "state": "AK",
    "county_code": 2016,
    "geoid": 20160002001050,
    "population": 1,
    "num_new": 133,
    "num_old": 132
  },
  {
    "latitude": 53.853093,
    "longitude": -166.439394,
    "name": "Unlisted",
    "type": "Unlisted",
    "county": "Aleutians West Census Area",
    "state": "AK",
    "county_code": 2016,
    "geoid": 20160002002009,
    "population": 1,
    "num_new": 134,
    "num_old": 133
  },
  {
    "latitude": 61.299241,
    "longitude": -149.56898,
    "name": "Hiland Mountain Correctional Center",
    "type": "State",
    "county": "Anchorage Municipality",
    "state": "AK",
    "county_code": 2020,
    "geoid": 20200002042036,
    "population": 405,
    "num_new": 135,
    "num_old": 134
  },
  {
    "latitude": 61.218641,
    "longitude": -149.85411,
    "name": "Anchorage C. Complex/East",
    "type": "State",
    "county": "Anchorage Municipality",
    "state": "AK",
    "county_code": 2020,
    "geoid": 20200009011008,
    "population": 629,
    "num_new": 136,
    "num_old": 135
  },
  {
    "latitude": 61.220646,
    "longitude": -149.882336,
    "name": "Cordova Center",
    "type": "Halfway House",
    "county": "Anchorage Municipality",
    "state": "AK",
    "county_code": 2020,
    "geoid": 20200011002004,
    "population": 96,
    "num_new": 137,
    "num_old": 136
  },
  {
    "latitude": 61.214118,
    "longitude": -149.88838,
    "name": "Glenwood Center",
    "type": "Halfway House",
    "county": "Anchorage Municipality",
    "state": "AK",
    "county_code": 2020,
    "geoid": 20200011002036,
    "population": 90,
    "num_new": 138,
    "num_old": 137
  },
  {
    "latitude": 61.214116,
    "longitude": -149.884299,
    "name": "Parkview Center- Cornell",
    "type": "Private",
    "county": "Anchorage Municipality",
    "state": "AK",
    "county_code": 2020,
    "geoid": 20200011002038,
    "population": 26,
    "num_new": 139,
    "num_old": 138
  },
  {
    "latitude": 61.197086,
    "longitude": -149.888993,
    "name": "Midtown Center",
    "type": "Halfway House",
    "county": "Anchorage Municipality",
    "state": "AK",
    "county_code": 2020,
    "geoid": 20200014006009,
    "population": 32,
    "num_new": 140,
    "num_old": 139
  },
  {
    "latitude": 61.185988,
    "longitude": -149.83011,
    "name": "Unlisted",
    "type": "Unlisted",
    "county": "Anchorage Municipality",
    "state": "AK",
    "county_code": 2020,
    "geoid": 20200016021014,
    "population": 128,
    "num_new": 141,
    "num_old": 140
  },
  {
    "latitude": 60.797511,
    "longitude": -161.77239,
    "name": "Tundra Center- Cornell",
    "type": "Private",
    "county": "Bethel Census Area",
    "state": "AK",
    "county_code": 2050,
    "geoid": 20500002002000,
    "population": 80,
    "num_new": 142,
    "num_old": 141
  },
  {
    "latitude": 60.792913,
    "longitude": -161.793405,
    "name": "Yukon Kuskokwin Correctional Center",
    "type": "State",
    "county": "Bethel Census Area",
    "state": "AK",
    "county_code": 2050,
    "geoid": 20500002002004,
    "population": 81,
    "num_new": 143,
    "num_old": 142
  },
  {
    "latitude": 64.83059,
    "longitude": -147.753014,
    "name": "Fairbanks Correctional Center",
    "type": "State",
    "county": "Fairbanks North Star Borough",
    "state": "AK",
    "county_code": 2090,
    "geoid": 20900002002027,
    "population": 299,
    "num_new": 144,
    "num_old": 143
  },
  {
    "latitude": 64.835737,
    "longitude": -147.827803,
    "name": "Unlisted",
    "type": "Unlisted",
    "county": "Fairbanks North Star Borough",
    "state": "AK",
    "county_code": 2090,
    "geoid": 20900007003027,
    "population": 1,
    "num_new": 145,
    "num_old": 144
  },
  {
    "latitude": 64.850044,
    "longitude": -147.946893,
    "name": "Northstar Center",
    "type": "Halfway House",
    "county": "Fairbanks North Star Borough",
    "state": "AK",
    "county_code": 2090,
    "geoid": 20900019005048,
    "population": 126,
    "num_new": 146,
    "num_old": 145
  },
  {
    "latitude": 58.387044,
    "longitude": -134.457964,
    "name": "Lemon Creek Correctional Center",
    "type": "State",
    "county": "Juneau City and Borough",
    "state": "AK",
    "county_code": 2110,
    "geoid": 21100004002001,
    "population": 209,
    "num_new": 147,
    "num_old": 146
  },
  {
    "latitude": 58.35781,
    "longitude": -134.493935,
    "name": "Glacier Manor",
    "type": "Halfway House",
    "county": "Juneau City and Borough",
    "state": "AK",
    "county_code": 2110,
    "geoid": 21100004003003,
    "population": 99,
    "num_new": 148,
    "num_old": 147
  },
  {
    "latitude": 60.58552,
    "longitude": -151.30528,
    "name": "Wildwood Correctional Complex and Wildwood Pre-Trial Facility",
    "type": "State",
    "county": "Kenai Peninsula Borough",
    "state": "AK",
    "county_code": 2122,
    "geoid": 21220002004035,
    "population": 398,
    "num_new": 149,
    "num_old": 148
  },
  {
    "latitude": 60.101413,
    "longitude": -149.317704,
    "name": "Spring Creek Correctional Center",
    "type": "State",
    "county": "Kenai Peninsula Borough",
    "state": "AK",
    "county_code": 2122,
    "geoid": 21220013002000,
    "population": 549,
    "num_new": 150,
    "num_old": 149
  },
  {
    "latitude": 55.34717,
    "longitude": -131.643118,
    "name": "Ketchikan Correctional Center",
    "type": "State",
    "county": "Ketchikan Gateway Borough",
    "state": "AK",
    "county_code": 2130,
    "geoid": 21300003001007,
    "population": 69,
    "num_new": 151,
    "num_old": 150
  },
  {
    "latitude": 61.691152,
    "longitude": -149.009077,
    "name": "Palmer Correctional Center",
    "type": "State",
    "county": "Matanuska-Susitna Borough",
    "state": "AK",
    "county_code": 2170,
    "geoid": 21700002001003,
    "population": 482,
    "num_new": 152,
    "num_old": 151
  },
  {
    "latitude": 61.356786,
    "longitude": -150.168143,
    "name": "Point Mackenzie Rehabilitation Farm",
    "type": "State",
    "county": "Matanuska-Susitna Borough",
    "state": "AK",
    "county_code": 2170,
    "geoid": 21700006042050,
    "population": 126,
    "num_new": 153,
    "num_old": 152
  },
  {
    "latitude": 61.602319,
    "longitude": -149.10989,
    "name": "Mat-Su Pretrial Facility",
    "type": "State",
    "county": "Matanuska-Susitna Borough",
    "state": "AK",
    "county_code": 2170,
    "geoid": 21700012012010,
    "population": 143,
    "num_new": 154,
    "num_old": 153
  },
  {
    "latitude": 64.540313,
    "longitude": -165.414807,
    "name": "Anvil Mountain Correctional Center",
    "type": "State",
    "county": "Nome Census Area",
    "state": "AK",
    "county_code": 2180,
    "geoid": 21800002002006,
    "population": 91,
    "num_new": 155,
    "num_old": 154
  },
  {
    "latitude": 64.497346,
    "longitude": -165.407619,
    "name": "Seaside Center- Cornell Corrections",
    "type": "Private",
    "county": "Nome Census Area",
    "state": "AK",
    "county_code": 2180,
    "geoid": 21800002003026,
    "population": 32,
    "num_new": 156,
    "num_old": 155
  },
  {
    "latitude": 66.895635,
    "longitude": -162.594933,
    "name": "Kotzebue Regional Jail Facility",
    "type": "Local",
    "county": "Northwest Arctic Borough",
    "state": "AK",
    "county_code": 2188,
    "geoid": 21880002002010,
    "population": 8,
    "num_new": 157,
    "num_old": 156
  },
  {
    "latitude": 57.052141,
    "longitude": -135.332978,
    "name": "Sitka City Jail",
    "type": "Local",
    "county": "Sitka City and Borough",
    "state": "AK",
    "county_code": 2220,
    "geoid": 22200002004032,
    "population": 3,
    "num_new": 158,
    "num_old": 157
  },
  {
    "latitude": 61.16287,
    "longitude": -146.280588,
    "name": "Valdez City Jail",
    "type": "Local",
    "county": "Valdez-Cordova Census Area",
    "state": "AK",
    "county_code": 2261,
    "geoid": 22610003003003,
    "population": 2,
    "num_new": 159,
    "num_old": 158
  },
  {
    "latitude": 34.321966,
    "longitude": -109.401592,
    "name": "ASPC - Winslow Apache Unit",
    "type": "State",
    "county": "Apache County",
    "state": "AZ",
    "county_code": 4001,
    "geoid": 40019703001350,
    "population": 333,
    "num_new": 160,
    "num_old": 159
  },
  {
    "latitude": 34.502005,
    "longitude": -109.365262,
    "name": "Apache County Jail",
    "type": "Local",
    "county": "Apache County",
    "state": "AZ",
    "county_code": 4001,
    "geoid": 40019703002029,
    "population": 95,
    "num_new": 161,
    "num_old": 160
  },
  {
    "latitude": 32.249356,
    "longitude": -109.83637,
    "name": "Cochise County Jail",
    "type": "Local",
    "county": "Cochise County",
    "state": "AZ",
    "county_code": 4003,
    "geoid": 40030002022033,
    "population": 4,
    "num_new": 162,
    "num_old": 161
  },
  {
    "latitude": 31.455835,
    "longitude": -109.582158,
    "name": "ASPC- Douglas",
    "type": "State",
    "county": "Cochise County",
    "state": "AZ",
    "county_code": 4003,
    "geoid": 40030005004036,
    "population": 131,
    "num_new": 163,
    "num_old": 162
  },
  {
    "latitude": 31.460487,
    "longitude": -109.591122,
    "name": "ASPC- Douglas",
    "type": "State",
    "county": "Cochise County",
    "state": "AZ",
    "county_code": 4003,
    "geoid": 40030005004039,
    "population": 2163,
    "num_new": 164,
    "num_old": 163
  },
  {
    "latitude": 31.346117,
    "longitude": -109.515641,
    "name": "Unlisted",
    "type": "Unlisted",
    "county": "Cochise County",
    "state": "AZ",
    "county_code": 4003,
    "geoid": 40030007004014,
    "population": 276,
    "num_new": 165,
    "num_old": 164
  },
  {
    "latitude": 31.433625,
    "longitude": -109.87007,
    "name": "Cochise County jail",
    "type": "Local",
    "county": "Cochise County",
    "state": "AZ",
    "county_code": 4003,
    "geoid": 40030010001066,
    "population": 206,
    "num_new": 166,
    "num_old": 165
  },
  {
    "latitude": 35.187605,
    "longitude": -111.641117,
    "name": "Coconino County Jail",
    "type": "Local",
    "county": "Coconino County",
    "state": "AZ",
    "county_code": 4005,
    "geoid": 40050008003064,
    "population": 510,
    "num_new": 167,
    "num_old": 166
  },
  {
    "latitude": 35.189166,
    "longitude": -111.640757,
    "name": "Coconino County Jail",
    "type": "Unlisted",
    "county": "Coconino County",
    "state": "AZ",
    "county_code": 4005,
    "geoid": 40050008003073,
    "population": 28,
    "num_new": 168,
    "num_old": 167
  },
  {
    "latitude": 35.183957,
    "longitude": -111.655623,
    "name": "Unlisted",
    "type": "Unlisted",
    "county": "Coconino County",
    "state": "AZ",
    "county_code": 4005,
    "geoid": 40050010001017,
    "population": 4,
    "num_new": 169,
    "num_old": 168
  },
  {
    "latitude": 35.174272,
    "longitude": -111.652704,
    "name": "Unlisted",
    "type": "Unlisted",
    "county": "Coconino County",
    "state": "AZ",
    "county_code": 4005,
    "geoid": 40050010002028,
    "population": 1,
    "num_new": 170,
    "num_old": 169
  },
  {
    "latitude": 34.231614,
    "longitude": -111.327171,
    "name": "Unlisted",
    "type": "Unlisted",
    "county": "Gila County",
    "state": "AZ",
    "county_code": 4007,
    "geoid": 40070003012043,
    "population": 12,
    "num_new": 171,
    "num_old": 170
  },
  {
    "latitude": 33.414338,
    "longitude": -110.720501,
    "name": "Unlisted",
    "type": "Unlisted",
    "county": "Gila County",
    "state": "AZ",
    "county_code": 4007,
    "geoid": 40070012001003,
    "population": 267,
    "num_new": 172,
    "num_old": 171
  },
  {
    "latitude": 33.389084,
    "longitude": -110.773542,
    "name": "Gila County jail",
    "type": "Local",
    "county": "Gila County",
    "state": "AZ",
    "county_code": 4007,
    "geoid": 40070012002006,
    "population": 114,
    "num_new": 173,
    "num_old": 172
  },
  {
    "latitude": 32.834193,
    "longitude": -109.718491,
    "name": "Graham County Jail",
    "type": "Local",
    "county": "Graham County",
    "state": "AZ",
    "county_code": 4009,
    "geoid": 40099613002012,
    "population": 131,
    "num_new": 174,
    "num_old": 173
  },
  {
    "latitude": 32.624174,
    "longitude": -109.944722,
    "name": "ASPC- Safford, Fort Grant Unit",
    "type": "State",
    "county": "Graham County",
    "state": "AZ",
    "county_code": 4009,
    "geoid": 40099616002013,
    "population": 911,
    "num_new": 175,
    "num_old": 174
  },
  {
    "latitude": 32.716498,
    "longitude": -109.726893,
    "name": "FCI Safford",
    "type": "Federal",
    "county": "Graham County",
    "state": "AZ",
    "county_code": 4009,
    "geoid": 40099616003009,
    "population": 1286,
    "num_new": 176,
    "num_old": 175
  },
  {
    "latitude": 32.816127,
    "longitude": -109.541406,
    "name": "Arizona State Prison Complex- Safford",
    "type": "State",
    "county": "Graham County",
    "state": "AZ",
    "county_code": 4009,
    "geoid": 40099617001100,
    "population": 77,
    "num_new": 177,
    "num_old": 176
  },
  {
    "latitude": 32.827015,
    "longitude": -109.558329,
    "name": "Arizona State Prison Complex- Safford",
    "type": "State",
    "county": "Graham County",
    "state": "AZ",
    "county_code": 4009,
    "geoid": 40099617001107,
    "population": 936,
    "num_new": 178,
    "num_old": 177
  },
  {
    "latitude": 33.028103,
    "longitude": -109.298402,
    "name": "Greenlee County Correctional Facility",
    "type": "Local",
    "county": "Greenlee County",
    "state": "AZ",
    "county_code": 4011,
    "geoid": 40119601001335,
    "population": 33,
    "num_new": 179,
    "num_old": 178
  },
  {
    "latitude": 34.145445,
    "longitude": -114.290353,
    "name": "La Paz County Jail",
    "type": "Local",
    "county": "La Paz County",
    "state": "AZ",
    "county_code": 4012,
    "geoid": 40129402001105,
    "population": 194,
    "num_new": 180,
    "num_old": 179
  },
  {
    "latitude": 34.125389,
    "longitude": -114.30739,
    "name": "Unlisted",
    "type": "Unlisted",
    "county": "La Paz County",
    "state": "AZ",
    "county_code": 4012,
    "geoid": 40129403004011,
    "population": 38,
    "num_new": 181,
    "num_old": 180
  },
  {
    "latitude": 33.966304,
    "longitude": -112.729916,
    "name": "Unlisted",
    "type": "Unlisted",
    "county": "Maricopa County",
    "state": "AZ",
    "county_code": 4013,
    "geoid": 40130405022009,
    "population": 83,
    "num_new": 182,
    "num_old": 181
  },
  {
    "latitude": 33.470766,
    "longitude": -112.435504,
    "name": "ASPC- Perryville",
    "type": "State",
    "county": "Maricopa County",
    "state": "AZ",
    "county_code": 4013,
    "geoid": 40130610171001,
    "population": 2202,
    "num_new": 183,
    "num_old": 182
  },
  {
    "latitude": 33.468561,
    "longitude": -112.448734,
    "name": "ASPC- Perryville",
    "type": "State",
    "county": "Maricopa County",
    "state": "AZ",
    "county_code": 4013,
    "geoid": 40130610171002,
    "population": 1294,
    "num_new": 184,
    "num_old": 183
  },
  {
    "latitude": 33.542085,
    "longitude": -112.359306,
    "name": "Unlisted",
    "type": "Unlisted",
    "county": "Maricopa County",
    "state": "AZ",
    "county_code": 4013,
    "geoid": 40130611001026,
    "population": 2,
    "num_new": 185,
    "num_old": 184
  },
  {
    "latitude": 33.614539,
    "longitude": -111.929037,
    "name": "Unlisted",
    "type": "Unlisted",
    "county": "Maricopa County",
    "state": "AZ",
    "county_code": 4013,
    "geoid": 40131032201015,
    "population": 2,
    "num_new": 186,
    "num_old": 185
  },
  {
    "latitude": 33.627719,
    "longitude": -112.09076,
    "name": "Unlisted",
    "type": "Unlisted",
    "county": "Maricopa County",
    "state": "AZ",
    "county_code": 4013,
    "geoid": 40131036041010,
    "population": 6,
    "num_new": 187,
    "num_old": 186
  },
  {
    "latitude": 33.499798,
    "longitude": -111.95645,
    "name": "Unlisted",
    "type": "Unlisted",
    "county": "Maricopa County",
    "state": "AZ",
    "county_code": 4013,
    "geoid": 40131080002007,
    "population": 1,
    "num_new": 188,
    "num_old": 187
  },
  {
    "latitude": 33.467769,
    "longitude": -112.027545,
    "name": "Unlisted",
    "type": "Unlisted",
    "county": "Maricopa County",
    "state": "AZ",
    "county_code": 4013,
    "geoid": 40131115011012,
    "population": 7,
    "num_new": 189,
    "num_old": 188
  },
  {
    "latitude": 33.478967,
    "longitude": -112.026403,
    "name": "Unlisted",
    "type": "Unlisted",
    "county": "Maricopa County",
    "state": "AZ",
    "county_code": 4013,
    "geoid": 40131115021002,
    "population": 5,
    "num_new": 190,
    "num_old": 189
  },
  {
    "latitude": 33.452764,
    "longitude": -112.027963,
    "name": "ASPC Phoenix",
    "type": "State",
    "county": "Maricopa County",
    "state": "AZ",
    "county_code": 4013,
    "geoid": 40131134001007,
    "population": 421,
    "num_new": 191,
    "num_old": 190
  },
  {
    "latitude": 33.459501,
    "longitude": -112.02966,
    "name": "Unlisted",
    "type": "Unlisted",
    "county": "Maricopa County",
    "state": "AZ",
    "county_code": 4013,
    "geoid": 40131135011013,
    "population": 25,
    "num_new": 192,
    "num_old": 191
  },
  {
    "latitude": 33.459818,
    "longitude": -112.020376,
    "name": "Behavorial Systems Southwest, Behavorial Systems Southwest Pregnant Offenders",
    "type": "Halfway House",
    "county": "Maricopa County",
    "state": "AZ",
    "county_code": 4013,
    "geoid": 40131135011016,
    "population": 58,
    "num_new": 193,
    "num_old": 192
  },
  {
    "latitude": 33.445536,
    "longitude": -112.078275,
    "name": "Maricopa County- 4th Avenue Jail",
    "type": "Local",
    "county": "Maricopa County",
    "state": "AZ",
    "county_code": 4013,
    "geoid": 40131141001052,
    "population": 1740,
    "num_new": 194,
    "num_old": 193
  },
  {
    "latitude": 33.433433,
    "longitude": -112.131542,
    "name": "Arizona State Prison-Phoenix West",
    "type": "Private",
    "county": "Maricopa County",
    "state": "AZ",
    "county_code": 4013,
    "geoid": 40131147031007,
    "population": 497,
    "num_new": 195,
    "num_old": 194
  },
  {
    "latitude": 33.427499,
    "longitude": -112.12194,
    "name": "Durango Jail and Estrella Jail and quot;Tent Cityquot; Jail",
    "type": "Local",
    "county": "Maricopa County",
    "state": "AZ",
    "county_code": 4013,
    "geoid": 40131147032001,
    "population": 4320,
    "num_new": 196,
    "num_old": 195
  },
  {
    "latitude": 33.424549,
    "longitude": -112.126348,
    "name": "Maricopa County- Lower Buckeye Jail",
    "type": "Local",
    "county": "Maricopa County",
    "state": "AZ",
    "county_code": 4013,
    "geoid": 40131147032005,
    "population": 1842,
    "num_new": 197,
    "num_old": 196
  },
  {
    "latitude": 33.605773,
    "longitude": -111.867138,
    "name": "Unlisted",
    "type": "Unlisted",
    "county": "Maricopa County",
    "state": "AZ",
    "county_code": 4013,
    "geoid": 40132168391010,
    "population": 2,
    "num_new": 198,
    "num_old": 197
  },
  {
    "latitude": 33.447621,
    "longitude": -111.685828,
    "name": "Unlisted",
    "type": "Unlisted",
    "county": "Maricopa County",
    "state": "AZ",
    "county_code": 4013,
    "geoid": 40134202103008,
    "population": 3,
    "num_new": 199,
    "num_old": 198
  },
  {
    "latitude": 33.429983,
    "longitude": -111.846102,
    "name": "Unlisted",
    "type": "Unlisted",
    "county": "Maricopa County",
    "state": "AZ",
    "county_code": 4013,
    "geoid": 40134211025017,
    "population": 3,
    "num_new": 200,
    "num_old": 199
  },
  {
    "latitude": 33.416917,
    "longitude": -111.846445,
    "name": "Unlisted",
    "type": "Unlisted",
    "county": "Maricopa County",
    "state": "AZ",
    "county_code": 4013,
    "geoid": 40134213021016,
    "population": 5,
    "num_new": 201,
    "num_old": 200
  },
  {
    "latitude": 33.420695,
    "longitude": -111.818993,
    "name": "Unlisted",
    "type": "Unlisted",
    "county": "Maricopa County",
    "state": "AZ",
    "county_code": 4013,
    "geoid": 40134215022001,
    "population": 7,
    "num_new": 202,
    "num_old": 201
  },
  {
    "latitude": 33.417265,
    "longitude": -111.801838,
    "name": "Unlisted",
    "type": "Unlisted",
    "county": "Maricopa County",
    "state": "AZ",
    "county_code": 4013,
    "geoid": 40134216012016,
    "population": 5,
    "num_new": 203,
    "num_old": 202
  },
  {
    "latitude": 33.396296,
    "longitude": -111.717019,
    "name": "Unlisted",
    "type": "Unlisted",
    "county": "Maricopa County",
    "state": "AZ",
    "county_code": 4013,
    "geoid": 40134226372016,
    "population": 3,
    "num_new": 204,
    "num_old": 203
  },
  {
    "latitude": 33.333034,
    "longitude": -111.853765,
    "name": "Unlisted",
    "type": "Unlisted",
    "county": "Maricopa County",
    "state": "AZ",
    "county_code": 4013,
    "geoid": 40135230031005,
    "population": 2,
    "num_new": 205,
    "num_old": 204
  },
  {
    "latitude": 33.836696,
    "longitude": -112.160254,
    "name": "FCI Phoenix, AZ and Camp",
    "type": "Federal",
    "county": "Maricopa County",
    "state": "AZ",
    "county_code": 4013,
    "geoid": 40136100002034,
    "population": 1126,
    "num_new": 206,
    "num_old": 205
  },
  {
    "latitude": 33.209613,
    "longitude": -112.6527,
    "name": "ASPC- Lewis",
    "type": "State",
    "county": "Maricopa County",
    "state": "AZ",
    "county_code": 4013,
    "geoid": 40137233061092,
    "population": 5084,
    "num_new": 207,
    "num_old": 206
  },
  {
    "latitude": 35.51783,
    "longitude": -113.423496,
    "name": "Unlisted",
    "type": "Unlisted",
    "county": "Mohave County",
    "state": "AZ",
    "county_code": 4015,
    "geoid": 40159404001203,
    "population": 32,
    "num_new": 208,
    "num_old": 207
  },
  {
    "latitude": 34.539876,
    "longitude": -114.352152,
    "name": "Unlisted",
    "type": "Unlisted",
    "county": "Mohave County",
    "state": "AZ",
    "county_code": 4015,
    "geoid": 40159525001050,
    "population": 16,
    "num_new": 209,
    "num_old": 208
  },
  {
    "latitude": 35.183226,
    "longitude": -114.066853,
    "name": "Unlisted",
    "type": "Unlisted",
    "county": "Mohave County",
    "state": "AZ",
    "county_code": 4015,
    "geoid": 40159536021034,
    "population": 120,
    "num_new": 210,
    "num_old": 209
  },
  {
    "latitude": 35.192498,
    "longitude": -114.05181,
    "name": "Mohave County jail",
    "type": "Local",
    "county": "Mohave County",
    "state": "AZ",
    "county_code": 4015,
    "geoid": 40159536022034,
    "population": 257,
    "num_new": 211,
    "num_old": 210
  },
  {
    "latitude": 35.187269,
    "longitude": -114.044816,
    "name": "Unlisted",
    "type": "Unlisted",
    "county": "Mohave County",
    "state": "AZ",
    "county_code": 4015,
    "geoid": 40159536022075,
    "population": 6,
    "num_new": 212,
    "num_old": 211
  },
  {
    "latitude": 35.032643,
    "longitude": -114.179623,
    "name": "ASPC-Kingman",
    "type": "Private",
    "county": "Mohave County",
    "state": "AZ",
    "county_code": 4015,
    "geoid": 40159548001638,
    "population": 1481,
    "num_new": 213,
    "num_old": 212
  },
  {
    "latitude": 34.870626,
    "longitude": -110.155065,
    "name": "Unlisted",
    "type": "Unlisted",
    "county": "Navajo County",
    "state": "AZ",
    "county_code": 4017,
    "geoid": 40179602001147,
    "population": 290,
    "num_new": 214,
    "num_old": 213
  },
  {
    "latitude": 34.991113,
    "longitude": -110.721378,
    "name": "ASPC- Winslow",
    "type": "State",
    "county": "Navajo County",
    "state": "AZ",
    "county_code": 4017,
    "geoid": 40179605002163,
    "population": 1413,
    "num_new": 215,
    "num_old": 214
  },
  {
    "latitude": 32.251152,
    "longitude": -110.979211,
    "name": "New Beginnings Treatment Center",
    "type": "Private",
    "county": "Pima County",
    "state": "AZ",
    "county_code": 4019,
    "geoid": 40190013033008,
    "population": 59,
    "num_new": 216,
    "num_old": 215
  },
  {
    "latitude": 32.202868,
    "longitude": -110.992977,
    "name": "Pima County Minimum Security Facility",
    "type": "Local",
    "county": "Pima County",
    "state": "AZ",
    "county_code": 4019,
    "geoid": 40190025014010,
    "population": 580,
    "num_new": 217,
    "num_old": 216
  },
  {
    "latitude": 32.200824,
    "longitude": -110.990813,
    "name": "Pima County Adult Detention Complex",
    "type": "Local",
    "county": "Pima County",
    "state": "AZ",
    "county_code": 4019,
    "geoid": 40190025014013,
    "population": 1308,
    "num_new": 218,
    "num_old": 217
  },
  {
    "latitude": 32.135901,
    "longitude": -110.95668,
    "name": "Behavioral Systems Southwest- Tuscon CCC",
    "type": "Halfway House",
    "county": "Pima County",
    "state": "AZ",
    "county_code": 4019,
    "geoid": 40190037022019,
    "population": 40,
    "num_new": 219,
    "num_old": 218
  },
  {
    "latitude": 32.173217,
    "longitude": -110.826492,
    "name": "Unlisted",
    "type": "Unlisted",
    "county": "Pima County",
    "state": "AZ",
    "county_code": 4019,
    "geoid": 40190040293004,
    "population": 2,
    "num_new": 220,
    "num_old": 219
  },
  {
    "latitude": 32.207631,
    "longitude": -110.821899,
    "name": "Unlisted",
    "type": "Unlisted",
    "county": "Pima County",
    "state": "AZ",
    "county_code": 4019,
    "geoid": 40190040693004,
    "population": 5,
    "num_new": 221,
    "num_old": 220
  },
  {
    "latitude": 32.067693,
    "longitude": -110.867819,
    "name": "ASPC Tucson",
    "type": "State",
    "county": "Pima County",
    "state": "AZ",
    "county_code": 4019,
    "geoid": 40190041131000,
    "population": 4116,
    "num_new": 222,
    "num_old": 221
  },
  {
    "latitude": 32.424865,
    "longitude": -111.242983,
    "name": "Marana Community Correctional Treatment Facility",
    "type": "Private",
    "county": "Pima County",
    "state": "AZ",
    "county_code": 4019,
    "geoid": 40190044301011,
    "population": 499,
    "num_new": 223,
    "num_old": 222
  },
  {
    "latitude": 32.322214,
    "longitude": -110.979816,
    "name": "Unlisted",
    "type": "Unlisted",
    "county": "Pima County",
    "state": "AZ",
    "county_code": 4019,
    "geoid": 40190046171010,
    "population": 3,
    "num_new": 224,
    "num_old": 223
  },
  {
    "latitude": 32.093195,
    "longitude": -110.874425,
    "name": "Tucson- Camp",
    "type": "Federal",
    "county": "Pima County",
    "state": "AZ",
    "county_code": 4019,
    "geoid": 40194105021147,
    "population": 104,
    "num_new": 225,
    "num_old": 224
  },
  {
    "latitude": 32.082982,
    "longitude": -110.867141,
    "name": "Tucson USP",
    "type": "Federal",
    "county": "Pima County",
    "state": "AZ",
    "county_code": 4019,
    "geoid": 40194105021158,
    "population": 924,
    "num_new": 226,
    "num_old": 225
  },
  {
    "latitude": 32.090136,
    "longitude": -110.856267,
    "name": "Tucson FCI",
    "type": "Federal",
    "county": "Pima County",
    "state": "AZ",
    "county_code": 4019,
    "geoid": 40194105031042,
    "population": 573,
    "num_new": 227,
    "num_old": 226
  },
  {
    "latitude": 32.381949,
    "longitude": -112.858611,
    "name": "Ajo District Jail",
    "type": "Local",
    "county": "Pima County",
    "state": "AZ",
    "county_code": 4019,
    "geoid": 40194704003033,
    "population": 6,
    "num_new": 228,
    "num_old": 227
  },
  {
    "latitude": 31.917334,
    "longitude": -111.884688,
    "name": "Unlisted",
    "type": "Unlisted",
    "county": "Pima County",
    "state": "AZ",
    "county_code": 4019,
    "geoid": 40199408001014,
    "population": 133,
    "num_new": 229,
    "num_old": 228
  },
  {
    "latitude": 33.036855,
    "longitude": -111.330167,
    "name": "ASPC- Eyman",
    "type": "State",
    "county": "Pinal County",
    "state": "AZ",
    "county_code": 4021,
    "geoid": 40210008031059,
    "population": 5426,
    "num_new": 230,
    "num_old": 229
  },
  {
    "latitude": 33.03702,
    "longitude": -111.376572,
    "name": "Florence West",
    "type": "Private",
    "county": "Pinal County",
    "state": "AZ",
    "county_code": 4021,
    "geoid": 40210008032028,
    "population": 746,
    "num_new": 231,
    "num_old": 230
  },
  {
    "latitude": 33.028872,
    "longitude": -111.376725,
    "name": "ASPC Florence- Central Unit",
    "type": "State",
    "county": "Pinal County",
    "state": "AZ",
    "county_code": 4021,
    "geoid": 40210008032035,
    "population": 3958,
    "num_new": 232,
    "num_old": 231
  },
  {
    "latitude": 33.037641,
    "longitude": -111.374183,
    "name": "Central Arizona Correctional Facility",
    "type": "Private",
    "county": "Pinal County",
    "state": "AZ",
    "county_code": 4021,
    "geoid": 40210008032038,
    "population": 1254,
    "num_new": 233,
    "num_old": 232
  },
  {
    "latitude": 33.044438,
    "longitude": -111.372423,
    "name": "Florence Correctional Center-CCA",
    "type": "Private",
    "county": "Pinal County",
    "state": "AZ",
    "county_code": 4021,
    "geoid": 40210009012001,
    "population": 1704,
    "num_new": 234,
    "num_old": 233
  },
  {
    "latitude": 33.042667,
    "longitude": -111.375706,
    "name": "Includes Pinal County Jail (local), Pinal County Adult Detention Center (federal), Florence Service Processing Center (Federal), Florence Correctional Center (Private-CCA)",
    "type": "Other",
    "county": "Pinal County",
    "state": "AZ",
    "county_code": 4021,
    "geoid": 40210009012002,
    "population": 4503,
    "num_new": 235,
    "num_old": 234
  },
  {
    "latitude": 33.039328,
    "longitude": -111.378044,
    "name": "Unlisted",
    "type": "Unlisted",
    "county": "Pinal County",
    "state": "AZ",
    "county_code": 4021,
    "geoid": 40210009012005,
    "population": 55,
    "num_new": 236,
    "num_old": 235
  },
  {
    "latitude": 32.815127,
    "longitude": -111.523438,
    "name": "Red Rock Correctional Center, Eloy Detention Center, La Palma COrrectional Center",
    "type": "Private",
    "county": "Pinal County",
    "state": "AZ",
    "county_code": 4021,
    "geoid": 40210020022000,
    "population": 5407,
    "num_new": 237,
    "num_old": 236
  },
  {
    "latitude": 32.809576,
    "longitude": -111.52971,
    "name": "Saguaro Correctional Center",
    "type": "Private",
    "county": "Pinal County",
    "state": "AZ",
    "county_code": 4021,
    "geoid": 40210020022002,
    "population": 1886,
    "num_new": 238,
    "num_old": 237
  },
  {
    "latitude": 32.66142,
    "longitude": -111.50797,
    "name": "ASPC Florence-Picacho Unit",
    "type": "State",
    "county": "Pinal County",
    "state": "AZ",
    "county_code": 4021,
    "geoid": 40210021022064,
    "population": 183,
    "num_new": 239,
    "num_old": 238
  },
  {
    "latitude": 33.071969,
    "longitude": -111.766549,
    "name": "Unlisted",
    "type": "Unlisted",
    "county": "Pinal County",
    "state": "AZ",
    "county_code": 4021,
    "geoid": 40219412002113,
    "population": 92,
    "num_new": 240,
    "num_old": 239
  },
  {
    "latitude": 33.029471,
    "longitude": -112.076276,
    "name": "Unlisted",
    "type": "Unlisted",
    "county": "Pinal County",
    "state": "AZ",
    "county_code": 4021,
    "geoid": 40219414003044,
    "population": 8,
    "num_new": 241,
    "num_old": 240
  },
  {
    "latitude": 31.355669,
    "longitude": -110.923604,
    "name": "Unlisted",
    "type": "Unlisted",
    "county": "Santa Cruz County",
    "state": "AZ",
    "county_code": 4023,
    "geoid": 40239663021014,
    "population": 49,
    "num_new": 242,
    "num_old": 241
  },
  {
    "latitude": 34.618749,
    "longitude": -111.929102,
    "name": "Yavapai County Jail",
    "type": "Local",
    "county": "Yavapai County",
    "state": "AZ",
    "county_code": 4025,
    "geoid": 40250016012012,
    "population": 535,
    "num_new": 243,
    "num_old": 242
  },
  {
    "latitude": 34.732302,
    "longitude": -112.018393,
    "name": "Unlisted",
    "type": "Unlisted",
    "county": "Yavapai County",
    "state": "AZ",
    "county_code": 4025,
    "geoid": 40250020011033,
    "population": 10,
    "num_new": 244,
    "num_old": 243
  },
  {
    "latitude": 34.719487,
    "longitude": -112.01741,
    "name": "Unlisted",
    "type": "Unlisted",
    "county": "Yavapai County",
    "state": "AZ",
    "county_code": 4025,
    "geoid": 40250020041067,
    "population": 6,
    "num_new": 245,
    "num_old": 244
  },
  {
    "latitude": 32.7244,
    "longitude": -114.622276,
    "name": "Yuma County Detention Center",
    "type": "Local",
    "county": "Yuma County",
    "state": "AZ",
    "county_code": 4027,
    "geoid": 40270001001020,
    "population": 577,
    "num_new": 246,
    "num_old": 245
  },
  {
    "latitude": 32.487804,
    "longitude": -114.626599,
    "name": "ASPC Yuma",
    "type": "State",
    "county": "Yuma County",
    "state": "AZ",
    "county_code": 4027,
    "geoid": 40270118001038,
    "population": 2404,
    "num_new": 247,
    "num_old": 246
  },
  {
    "latitude": 32.484135,
    "longitude": -114.692264,
    "name": "San Luiz Detention Facility",
    "type": "Federal",
    "county": "Yuma County",
    "state": "AZ",
    "county_code": 4027,
    "geoid": 40279800051007,
    "population": 502,
    "num_new": 248,
    "num_old": 247
  },
  {
    "latitude": 34.273792,
    "longitude": -91.345308,
    "name": "Arkansas County Detention Center",
    "type": "Local",
    "county": "Arkansas County",
    "state": "AR",
    "county_code": 5001,
    "geoid": 50014806002073,
    "population": 80,
    "num_new": 249,
    "num_old": 248
  },
  {
    "latitude": 33.236588,
    "longitude": -91.837049,
    "name": "Ashley County Jail",
    "type": "Local",
    "county": "Ashley County",
    "state": "AR",
    "county_code": 5003,
    "geoid": 50039603003006,
    "population": 80,
    "num_new": 250,
    "num_old": 249
  },
  {
    "latitude": 36.332703,
    "longitude": -92.388159,
    "name": "Baxter County Jail",
    "type": "Local",
    "county": "Baxter County",
    "state": "AR",
    "county_code": 5005,
    "geoid": 50059504002075,
    "population": 51,
    "num_new": 251,
    "num_old": 250
  },
  {
    "latitude": 36.337132,
    "longitude": -94.472333,
    "name": "Benton County Detention Facility",
    "type": "Local",
    "county": "Benton County",
    "state": "AR",
    "county_code": 5007,
    "geoid": 50070210021031,
    "population": 46,
    "num_new": 252,
    "num_old": 251
  },
  {
    "latitude": 36.169047,
    "longitude": -93.028924,
    "name": "Boone County Law Enforcement Center",
    "type": "Local",
    "county": "Boone County",
    "state": "AR",
    "county_code": 5009,
    "geoid": 50097903002000,
    "population": 72,
    "num_new": 253,
    "num_old": 252
  },
  {
    "latitude": 33.443577,
    "longitude": -92.17065,
    "name": "Unlisted",
    "type": "Unlisted",
    "county": "Bradley County",
    "state": "AR",
    "county_code": 5011,
    "geoid": 50119505001040,
    "population": 53,
    "num_new": 254,
    "num_old": 253
  },
  {
    "latitude": 33.540216,
    "longitude": -92.470009,
    "name": "Calhoun County Jail",
    "type": "Local",
    "county": "Calhoun County",
    "state": "AR",
    "county_code": 5013,
    "geoid": 50134802002009,
    "population": 27,
    "num_new": 255,
    "num_old": 254
  },
  {
    "latitude": 36.365995,
    "longitude": -93.544938,
    "name": "Carroll County Jail",
    "type": "Local",
    "county": "Carroll County",
    "state": "AR",
    "county_code": 5015,
    "geoid": 50159503003005,
    "population": 95,
    "num_new": 256,
    "num_old": 255
  },
  {
    "latitude": 33.519538,
    "longitude": -91.411427,
    "name": "Delta Regional Facility",
    "type": "State",
    "county": "Chicot County",
    "state": "AR",
    "county_code": 5017,
    "geoid": 50170801001128,
    "population": 573,
    "num_new": 257,
    "num_old": 256
  },
  {
    "latitude": 33.528234,
    "longitude": -91.435515,
    "name": "Dermott Police Station",
    "type": "Local",
    "county": "Chicot County",
    "state": "AR",
    "county_code": 5017,
    "geoid": 50170802001075,
    "population": 5,
    "num_new": 258,
    "num_old": 257
  },
  {
    "latitude": 34.118449,
    "longitude": -93.051686,
    "name": "Clark County Jail",
    "type": "Local",
    "county": "Clark County",
    "state": "AR",
    "county_code": 5019,
    "geoid": 50199538001009,
    "population": 43,
    "num_new": 259,
    "num_old": 258
  },
  {
    "latitude": 36.380773,
    "longitude": -90.193495,
    "name": "Clay County Jail",
    "type": "Local",
    "county": "Clay County",
    "state": "AR",
    "county_code": 5021,
    "geoid": 50219506003004,
    "population": 71,
    "num_new": 260,
    "num_old": 259
  },
  {
    "latitude": 35.480862,
    "longitude": -92.051232,
    "name": "Cleburne County Jail",
    "type": "Local",
    "county": "Cleburne County",
    "state": "AR",
    "county_code": 5023,
    "geoid": 50234804004007,
    "population": 80,
    "num_new": 261,
    "num_old": 260
  },
  {
    "latitude": 33.264058,
    "longitude": -93.266339,
    "name": "Columbia County Jail",
    "type": "Local",
    "county": "Columbia County",
    "state": "AR",
    "county_code": 5027,
    "geoid": 50279505001019,
    "population": 54,
    "num_new": 262,
    "num_old": 261
  },
  {
    "latitude": 35.154115,
    "longitude": -92.742811,
    "name": "Unlisted",
    "type": "Unlisted",
    "county": "Conway County",
    "state": "AR",
    "county_code": 5029,
    "geoid": 50299503002104,
    "population": 1,
    "num_new": 263,
    "num_old": 262
  },
  {
    "latitude": 35.782883,
    "longitude": -90.674178,
    "name": "Jonesboro Human Development Center",
    "type": "Unlisted",
    "county": "Craighead County",
    "state": "AR",
    "county_code": 5031,
    "geoid": 50310004022012,
    "population": 108,
    "num_new": 264,
    "num_old": 263
  },
  {
    "latitude": 35.855869,
    "longitude": -90.735894,
    "name": "Craighead County Detention Center",
    "type": "Local",
    "county": "Craighead County",
    "state": "AR",
    "county_code": 5031,
    "geoid": 50310007005047,
    "population": 330,
    "num_new": 265,
    "num_old": 264
  },
  {
    "latitude": 35.434658,
    "longitude": -94.356205,
    "name": "Crawford County Jail",
    "type": "Local",
    "county": "Crawford County",
    "state": "AR",
    "county_code": 5033,
    "geoid": 50330205023065,
    "population": 117,
    "num_new": 266,
    "num_old": 265
  },
  {
    "latitude": 35.17459,
    "longitude": -90.189663,
    "name": "Crittenden County Jail",
    "type": "Local",
    "county": "Crittenden County",
    "state": "AR",
    "county_code": 5035,
    "geoid": 50350307031130,
    "population": 299,
    "num_new": 267,
    "num_old": 266
  },
  {
    "latitude": 35.222546,
    "longitude": -90.786428,
    "name": "Cross County Criminal Justice Center",
    "type": "Local",
    "county": "Cross County",
    "state": "AR",
    "county_code": 5037,
    "geoid": 50379506001010,
    "population": 54,
    "num_new": 268,
    "num_old": 267
  },
  {
    "latitude": 33.81336,
    "longitude": -92.398413,
    "name": "Dallas County Jail",
    "type": "Local",
    "county": "Dallas County",
    "state": "AR",
    "county_code": 5039,
    "geoid": 50399703005030,
    "population": 139,
    "num_new": 269,
    "num_old": 268
  },
  {
    "latitude": 33.627156,
    "longitude": -91.791944,
    "name": "Drew County Detention Facility",
    "type": "Local",
    "county": "Drew County",
    "state": "AR",
    "county_code": 5043,
    "geoid": 50434903005050,
    "population": 36,
    "num_new": 270,
    "num_old": 269
  },
  {
    "latitude": 35.101829,
    "longitude": -92.425144,
    "name": "Conway Human Development Center",
    "type": "Unlisted",
    "county": "Faulkner County",
    "state": "AR",
    "county_code": 5045,
    "geoid": 50450304032009,
    "population": 505,
    "num_new": 271,
    "num_old": 270
  },
  {
    "latitude": 35.088532,
    "longitude": -92.443783,
    "name": "Faulkner County Detention Center",
    "type": "Local",
    "county": "Faulkner County",
    "state": "AR",
    "county_code": 5045,
    "geoid": 50450307022044,
    "population": 107,
    "num_new": 272,
    "num_old": 271
  },
  {
    "latitude": 35.07232,
    "longitude": -92.436982,
    "name": "Unlisted",
    "type": "Unlisted",
    "county": "Faulkner County",
    "state": "AR",
    "county_code": 5045,
    "geoid": 50450309003016,
    "population": 123,
    "num_new": 273,
    "num_old": 272
  },
  {
    "latitude": 36.37006,
    "longitude": -91.823171,
    "name": "Fulton County Jail",
    "type": "Local",
    "county": "Fulton County",
    "state": "AR",
    "county_code": 5049,
    "geoid": 50495502005054,
    "population": 7,
    "num_new": 274,
    "num_old": 273
  },
  {
    "latitude": 34.50418,
    "longitude": -93.058784,
    "name": "Garland County Criminal Detention Facility",
    "type": "Local",
    "county": "Garland County",
    "state": "AR",
    "county_code": 5051,
    "geoid": 50510108003009,
    "population": 220,
    "num_new": 275,
    "num_old": 274
  },
  {
    "latitude": 34.405324,
    "longitude": -93.088897,
    "name": "Unlisted",
    "type": "Unlisted",
    "county": "Garland County",
    "state": "AR",
    "county_code": 5051,
    "geoid": 50510119004095,
    "population": 29,
    "num_new": 276,
    "num_old": 275
  },
  {
    "latitude": 34.304778,
    "longitude": -92.391037,
    "name": "Sheridan Detention Center",
    "type": "Local",
    "county": "Grant County",
    "state": "AR",
    "county_code": 5053,
    "geoid": 50534704001016,
    "population": 63,
    "num_new": 277,
    "num_old": 276
  },
  {
    "latitude": 36.077136,
    "longitude": -90.542647,
    "name": "Greene County Jail",
    "type": "Local",
    "county": "Greene County",
    "state": "AR",
    "county_code": 5055,
    "geoid": 50554804001000,
    "population": 132,
    "num_new": 278,
    "num_old": 277
  },
  {
    "latitude": 33.664685,
    "longitude": -93.599196,
    "name": "Hempstead County Jail",
    "type": "Local",
    "county": "Hempstead County",
    "state": "AR",
    "county_code": 5057,
    "geoid": 50574805003003,
    "population": 51,
    "num_new": 279,
    "num_old": 278
  },
  {
    "latitude": 34.345119,
    "longitude": -92.842858,
    "name": "Omega Technical Violator, Ouachita River Unit",
    "type": "State",
    "county": "Hot Spring County",
    "state": "AR",
    "county_code": 5059,
    "geoid": 50590205002044,
    "population": 1092,
    "num_new": 280,
    "num_old": 279
  },
  {
    "latitude": 35.765395,
    "longitude": -91.658152,
    "name": "Independence County Jail",
    "type": "Local",
    "county": "Independence County",
    "state": "AR",
    "county_code": 5063,
    "geoid": 50634906002025,
    "population": 91,
    "num_new": 281,
    "num_old": 280
  },
  {
    "latitude": 36.056352,
    "longitude": -91.915591,
    "name": "Izard County Jail",
    "type": "Local",
    "county": "Izard County",
    "state": "AR",
    "county_code": 5065,
    "geoid": 50659602001211,
    "population": 28,
    "num_new": 282,
    "num_old": 281
  },
  {
    "latitude": 36.163828,
    "longitude": -92.143581,
    "name": "North Central Unit",
    "type": "State",
    "county": "Izard County",
    "state": "AR",
    "county_code": 5065,
    "geoid": 50659603002104,
    "population": 574,
    "num_new": 283,
    "num_old": 282
  },
  {
    "latitude": 35.604922,
    "longitude": -91.284604,
    "name": "Jackson County Detention Center",
    "type": "Local",
    "county": "Jackson County",
    "state": "AR",
    "county_code": 5067,
    "geoid": 50674802004018,
    "population": 52,
    "num_new": 284,
    "num_old": 283
  },
  {
    "latitude": 35.637118,
    "longitude": -91.180782,
    "name": "Grimes-Mcpherson Correctional Facility",
    "type": "State",
    "county": "Jackson County",
    "state": "AR",
    "county_code": 5067,
    "geoid": 50674804001056,
    "population": 1777,
    "num_new": 285,
    "num_old": 284
  },
  {
    "latitude": 34.446416,
    "longitude": -91.918774,
    "name": "Maximum Security Unit",
    "type": "State",
    "county": "Jefferson County",
    "state": "AR",
    "county_code": 5069,
    "geoid": 50690001021010,
    "population": 529,
    "num_new": 286,
    "num_old": 285
  },
  {
    "latitude": 34.43611,
    "longitude": -91.886947,
    "name": "Tucker Unit",
    "type": "State",
    "county": "Jefferson County",
    "state": "AR",
    "county_code": 5069,
    "geoid": 50690001021011,
    "population": 787,
    "num_new": 287,
    "num_old": 286
  },
  {
    "latitude": 34.22769,
    "longitude": -92.000387,
    "name": "Jefferson County Jail and Adult Detention Center",
    "type": "Local",
    "county": "Jefferson County",
    "state": "AR",
    "county_code": 5069,
    "geoid": 50690010003027,
    "population": 257,
    "num_new": 288,
    "num_old": 287
  },
  {
    "latitude": 34.22107,
    "longitude": -92.076801,
    "name": "Randall J. Williams Correctional Facility",
    "type": "State",
    "county": "Jefferson County",
    "state": "AR",
    "county_code": 5069,
    "geoid": 50690021033060,
    "population": 578,
    "num_new": 289,
    "num_old": 288
  },
  {
    "latitude": 34.221196,
    "longitude": -92.082122,
    "name": "Pine Bluff Unit, Diagnostic Unit",
    "type": "State",
    "county": "Jefferson County",
    "state": "AR",
    "county_code": 5069,
    "geoid": 50690021033062,
    "population": 861,
    "num_new": 290,
    "num_old": 289
  },
  {
    "latitude": 34.21889,
    "longitude": -92.085262,
    "name": "Southeast Arkansas Community Correctional Center",
    "type": "State",
    "county": "Jefferson County",
    "state": "AR",
    "county_code": 5069,
    "geoid": 50690021033065,
    "population": 328,
    "num_new": 291,
    "num_old": 290
  },
  {
    "latitude": 34.459978,
    "longitude": -91.876232,
    "name": "Tucker Unit",
    "type": "State",
    "county": "Jefferson County",
    "state": "AR",
    "county_code": 5069,
    "geoid": 50690023003026,
    "population": 109,
    "num_new": 292,
    "num_old": 291
  },
  {
    "latitude": 35.457716,
    "longitude": -93.446396,
    "name": "Johnson County Jail",
    "type": "Local",
    "county": "Johnson County",
    "state": "AR",
    "county_code": 5071,
    "geoid": 50719521003002,
    "population": 57,
    "num_new": 293,
    "num_old": 292
  },
  {
    "latitude": 33.357741,
    "longitude": -93.576973,
    "name": "Lafayette County Jail",
    "type": "Local",
    "county": "Lafayette County",
    "state": "AR",
    "county_code": 5073,
    "geoid": 50734701001202,
    "population": 29,
    "num_new": 294,
    "num_old": 293
  },
  {
    "latitude": 36.069887,
    "longitude": -90.958505,
    "name": "Lawrence County Jail",
    "type": "Local",
    "county": "Lawrence County",
    "state": "AR",
    "county_code": 5075,
    "geoid": 50754705023056,
    "population": 32,
    "num_new": 295,
    "num_old": 294
  },
  {
    "latitude": 34.849892,
    "longitude": -90.601938,
    "name": "East Arkansas Regional Unit",
    "type": "State",
    "county": "Lee County",
    "state": "AR",
    "county_code": 5077,
    "geoid": 50774701001050,
    "population": 1679,
    "num_new": 296,
    "num_old": 295
  },
  {
    "latitude": 34.775561,
    "longitude": -90.752437,
    "name": "Marianna City Jail",
    "type": "Local",
    "county": "Lee County",
    "state": "AR",
    "county_code": 5077,
    "geoid": 50774703005011,
    "population": 7,
    "num_new": 297,
    "num_old": 296
  },
  {
    "latitude": 33.939865,
    "longitude": -91.844405,
    "name": "Lincoln County Jail",
    "type": "Local",
    "county": "Lincoln County",
    "state": "AR",
    "county_code": 5079,
    "geoid": 50799605002026,
    "population": 18,
    "num_new": 298,
    "num_old": 297
  },
  {
    "latitude": 34.059165,
    "longitude": -91.576158,
    "name": "Varner Unit, Varner Supermax Unit, Cummins Unit",
    "type": "State",
    "county": "Lincoln County",
    "state": "AR",
    "county_code": 5079,
    "geoid": 50799606002047,
    "population": 3288,
    "num_new": 299,
    "num_old": 298
  },
  {
    "latitude": 35.288209,
    "longitude": -93.734972,
    "name": "Logan County Detention Center",
    "type": "Local",
    "county": "Logan County",
    "state": "AR",
    "county_code": 5083,
    "geoid": 50839503002057,
    "population": 23,
    "num_new": 300,
    "num_old": 299
  },
  {
    "latitude": 35.14266,
    "longitude": -93.916268,
    "name": "Unlisted",
    "type": "Unlisted",
    "county": "Logan County",
    "state": "AR",
    "county_code": 5083,
    "geoid": 50839505001037,
    "population": 4,
    "num_new": 301,
    "num_old": 300
  },
  {
    "latitude": 34.973789,
    "longitude": -92.016693,
    "name": "Cabot City Jail",
    "type": "Local",
    "county": "Lonoke County",
    "state": "AR",
    "county_code": 5085,
    "geoid": 50850202042000,
    "population": 3,
    "num_new": 302,
    "num_old": 301
  },
  {
    "latitude": 34.786448,
    "longitude": -91.898537,
    "name": "Lonoke County Detention Center",
    "type": "Local",
    "county": "Lonoke County",
    "state": "AR",
    "county_code": 5085,
    "geoid": 50850205001112,
    "population": 61,
    "num_new": 303,
    "num_old": 302
  },
  {
    "latitude": 36.229876,
    "longitude": -92.690571,
    "name": "Marion County Law Enforcement Center",
    "type": "Local",
    "county": "Marion County",
    "state": "AR",
    "county_code": 5089,
    "geoid": 50899602012033,
    "population": 16,
    "num_new": 304,
    "num_old": 303
  },
  {
    "latitude": 33.426765,
    "longitude": -94.041544,
    "name": "Texarkana Regional Correctional Center, Southwest Arkansas Community Correctional Center",
    "type": "State",
    "county": "Miller County",
    "state": "AR",
    "county_code": 5091,
    "geoid": 50910204001044,
    "population": 599,
    "num_new": 305,
    "num_old": 304
  },
  {
    "latitude": 33.420728,
    "longitude": -94.042749,
    "name": "Unlisted",
    "type": "Unlisted",
    "county": "Miller County",
    "state": "AR",
    "county_code": 5091,
    "geoid": 50910204001075,
    "population": 52,
    "num_new": 306,
    "num_old": 305
  },
  {
    "latitude": 33.40406,
    "longitude": -94.027234,
    "name": "Miller County Jail",
    "type": "Local",
    "county": "Miller County",
    "state": "AR",
    "county_code": 5091,
    "geoid": 50910205002108,
    "population": 238,
    "num_new": 307,
    "num_old": 306
  },
  {
    "latitude": 35.781586,
    "longitude": -89.973137,
    "name": "Mississippi County Work Release Center",
    "type": "State",
    "county": "Mississippi County",
    "state": "AR",
    "county_code": 5093,
    "geoid": 50930109003011,
    "population": 83,
    "num_new": 308,
    "num_old": 307
  },
  {
    "latitude": 35.767944,
    "longitude": -89.97444,
    "name": "Mississippi County Work Release Center",
    "type": "State",
    "county": "Mississippi County",
    "state": "AR",
    "county_code": 5093,
    "geoid": 50930109003085,
    "population": 152,
    "num_new": 309,
    "num_old": 308
  },
  {
    "latitude": 35.68507,
    "longitude": -89.985879,
    "name": "Northeast Arkansas Community Correctional Center",
    "type": "State",
    "county": "Mississippi County",
    "state": "AR",
    "county_code": 5093,
    "geoid": 50930111002037,
    "population": 240,
    "num_new": 310,
    "num_old": 309
  },
  {
    "latitude": 34.887622,
    "longitude": -91.193698,
    "name": "Brinkley City Jail",
    "type": "Local",
    "county": "Monroe County",
    "state": "AR",
    "county_code": 5095,
    "geoid": 50959501004000,
    "population": 3,
    "num_new": 311,
    "num_old": 310
  },
  {
    "latitude": 34.691723,
    "longitude": -91.314321,
    "name": "Monroe County Detention Center",
    "type": "Local",
    "county": "Monroe County",
    "state": "AR",
    "county_code": 5095,
    "geoid": 50959502001156,
    "population": 19,
    "num_new": 312,
    "num_old": 311
  },
  {
    "latitude": 34.55773,
    "longitude": -93.632658,
    "name": "Montgomery County Jail",
    "type": "Local",
    "county": "Montgomery County",
    "state": "AR",
    "county_code": 5097,
    "geoid": 50979530003028,
    "population": 8,
    "num_new": 313,
    "num_old": 312
  },
  {
    "latitude": 33.79926,
    "longitude": -93.379787,
    "name": "Nevada County Jail",
    "type": "Local",
    "county": "Nevada County",
    "state": "AR",
    "county_code": 5099,
    "geoid": 50990902001034,
    "population": 13,
    "num_new": 314,
    "num_old": 313
  },
  {
    "latitude": 33.58623,
    "longitude": -92.828027,
    "name": "Ouachita County Jail",
    "type": "Local",
    "county": "Ouachita County",
    "state": "AR",
    "county_code": 5103,
    "geoid": 51039506003014,
    "population": 50,
    "num_new": 315,
    "num_old": 314
  },
  {
    "latitude": 34.528576,
    "longitude": -90.585592,
    "name": "Phillips County Jail",
    "type": "Local",
    "county": "Phillips County",
    "state": "AR",
    "county_code": 5107,
    "geoid": 51074804003010,
    "population": 65,
    "num_new": 316,
    "num_old": 315
  },
  {
    "latitude": 34.060056,
    "longitude": -93.691776,
    "name": "Pike County Jail",
    "type": "Local",
    "county": "Pike County",
    "state": "AR",
    "county_code": 5109,
    "geoid": 51099535003117,
    "population": 56,
    "num_new": 317,
    "num_old": 316
  },
  {
    "latitude": 35.580287,
    "longitude": -90.716724,
    "name": "Poinsett County Detention Center",
    "type": "Local",
    "county": "Poinsett County",
    "state": "AR",
    "county_code": 5111,
    "geoid": 51114905004012,
    "population": 87,
    "num_new": 318,
    "num_old": 317
  },
  {
    "latitude": 34.586546,
    "longitude": -94.241812,
    "name": "Polk County Jail",
    "type": "Local",
    "county": "Polk County",
    "state": "AR",
    "county_code": 5113,
    "geoid": 51139502005011,
    "population": 21,
    "num_new": 319,
    "num_old": 318
  },
  {
    "latitude": 35.280431,
    "longitude": -93.111305,
    "name": "Pope County Detention Center",
    "type": "Local",
    "county": "Pope County",
    "state": "AR",
    "county_code": 5115,
    "geoid": 51159513003022,
    "population": 171,
    "num_new": 320,
    "num_old": 319
  },
  {
    "latitude": 34.972289,
    "longitude": -91.485775,
    "name": "Prairie County Jail",
    "type": "Local",
    "county": "Prairie County",
    "state": "AR",
    "county_code": 5117,
    "geoid": 51174601003026,
    "population": 16,
    "num_new": 321,
    "num_old": 320
  },
  {
    "latitude": 34.723606,
    "longitude": -92.309133,
    "name": "Pulaski County Regional Jail",
    "type": "Local",
    "county": "Pulaski County",
    "state": "AR",
    "county_code": 5119,
    "geoid": 51190012001065,
    "population": 1026,
    "num_new": 322,
    "num_old": 321
  },
  {
    "latitude": 34.73664,
    "longitude": -92.342431,
    "name": "City of Faith Community Correction Center",
    "type": "Private",
    "county": "Pulaski County",
    "state": "AR",
    "county_code": 5119,
    "geoid": 51190021021000,
    "population": 82,
    "num_new": 323,
    "num_old": 322
  },
  {
    "latitude": 34.712651,
    "longitude": -92.371336,
    "name": "Sober Living",
    "type": "Private",
    "county": "Pulaski County",
    "state": "AR",
    "county_code": 5119,
    "geoid": 51190024061044,
    "population": 36,
    "num_new": 324,
    "num_old": 323
  },
  {
    "latitude": 34.900644,
    "longitude": -92.154381,
    "name": "Unlisted",
    "type": "Unlisted",
    "county": "Pulaski County",
    "state": "AR",
    "county_code": 5119,
    "geoid": 51190035003044,
    "population": 2,
    "num_new": 325,
    "num_old": 324
  },
  {
    "latitude": 34.6015,
    "longitude": -92.192268,
    "name": "Wrightsville Unit, Hawkins Center for Women",
    "type": "State",
    "county": "Pulaski County",
    "state": "AR",
    "county_code": 5119,
    "geoid": 51190040052021,
    "population": 1108,
    "num_new": 326,
    "num_old": 325
  },
  {
    "latitude": 36.255931,
    "longitude": -90.953052,
    "name": "Randolph County Law Enforcement Center",
    "type": "Local",
    "county": "Randolph County",
    "state": "AR",
    "county_code": 5121,
    "geoid": 51219603021015,
    "population": 32,
    "num_new": 327,
    "num_old": 326
  },
  {
    "latitude": 34.981693,
    "longitude": -90.794356,
    "name": "FCI Forrest City and Camp",
    "type": "Federal",
    "county": "St. Francis County",
    "state": "AR",
    "county_code": 5123,
    "geoid": 51239606001000,
    "population": 3814,
    "num_new": 328,
    "num_old": 327
  },
  {
    "latitude": 35.008061,
    "longitude": -90.782934,
    "name": "St. Francis County Jail",
    "type": "Local",
    "county": "St. Francis County",
    "state": "AR",
    "county_code": 5123,
    "geoid": 51239606005019,
    "population": 91,
    "num_new": 329,
    "num_old": 328
  },
  {
    "latitude": 34.519085,
    "longitude": -92.652044,
    "name": "Benton Unit",
    "type": "State",
    "county": "Saline County",
    "state": "AR",
    "county_code": 5125,
    "geoid": 51250105033053,
    "population": 248,
    "num_new": 330,
    "num_old": 329
  },
  {
    "latitude": 34.556417,
    "longitude": -92.579996,
    "name": "Saline County Detention Facility",
    "type": "Local",
    "county": "Saline County",
    "state": "AR",
    "county_code": 5125,
    "geoid": 51250106004000,
    "population": 173,
    "num_new": 331,
    "num_old": 330
  },
  {
    "latitude": 35.910914,
    "longitude": -92.652128,
    "name": "Searcy County Jail",
    "type": "Local",
    "county": "Searcy County",
    "state": "AR",
    "county_code": 5129,
    "geoid": 51299702002075,
    "population": 11,
    "num_new": 332,
    "num_old": 331
  },
  {
    "latitude": 35.382734,
    "longitude": -94.425639,
    "name": "Sebastian County Adult Detention Center",
    "type": "Local",
    "county": "Sebastian County",
    "state": "AR",
    "county_code": 5131,
    "geoid": 51310003002088,
    "population": 417,
    "num_new": 333,
    "num_old": 332
  },
  {
    "latitude": 34.035963,
    "longitude": -94.340882,
    "name": "Unlisted",
    "type": "Unlisted",
    "county": "Sevier County",
    "state": "AR",
    "county_code": 5133,
    "geoid": 51330803002046,
    "population": 4,
    "num_new": 334,
    "num_old": 333
  },
  {
    "latitude": 34.056092,
    "longitude": -94.333015,
    "name": "Sevier County Jail",
    "type": "Local",
    "county": "Sevier County",
    "state": "AR",
    "county_code": 5133,
    "geoid": 51330803003000,
    "population": 25,
    "num_new": 335,
    "num_old": 334
  },
  {
    "latitude": 36.230832,
    "longitude": -91.601081,
    "name": "Sharp County Detention Center",
    "type": "Local",
    "county": "Sharp County",
    "state": "AR",
    "county_code": 5135,
    "geoid": 51354703001068,
    "population": 25,
    "num_new": 336,
    "num_old": 335
  },
  {
    "latitude": 35.868618,
    "longitude": -92.130014,
    "name": "Stone County Detention Facility",
    "type": "Local",
    "county": "Stone County",
    "state": "AR",
    "county_code": 5137,
    "geoid": 51379502023034,
    "population": 24,
    "num_new": 337,
    "num_old": 336
  },
  {
    "latitude": 33.208716,
    "longitude": -92.63455,
    "name": "Union County Criminal Justice Facility",
    "type": "Local",
    "county": "Union County",
    "state": "AR",
    "county_code": 5139,
    "geoid": 51399510002010,
    "population": 186,
    "num_new": 338,
    "num_old": 337
  },
  {
    "latitude": 35.575493,
    "longitude": -92.448896,
    "name": "Van Buren County Detention Center",
    "type": "Local",
    "county": "Van Buren County",
    "state": "AR",
    "county_code": 5141,
    "geoid": 51414603023058,
    "population": 50,
    "num_new": 339,
    "num_old": 338
  },
  {
    "latitude": 36.032715,
    "longitude": -94.175915,
    "name": "Washington County Detention Center",
    "type": "Local",
    "county": "Washington County",
    "state": "AR",
    "county_code": 5143,
    "geoid": 51430111012054,
    "population": 512,
    "num_new": 340,
    "num_old": 339
  },
  {
    "latitude": 36.186964,
    "longitude": -94.129185,
    "name": "Northwest Arkansas Work Release Center",
    "type": "State",
    "county": "Washington County",
    "state": "AR",
    "county_code": 5143,
    "geoid": 51430112001028,
    "population": 54,
    "num_new": 341,
    "num_old": 340
  },
  {
    "latitude": 36.063784,
    "longitude": -94.157266,
    "name": "Unlisted",
    "type": "Unlisted",
    "county": "Washington County",
    "state": "AR",
    "county_code": 5143,
    "geoid": 51430113006022,
    "population": 99,
    "num_new": 342,
    "num_old": 341
  },